
$GPGGA,142901.000,4048.6362,N,07418.5457,W,1,05,1.42,179.5,M,-34.2,M,,*51
$GPGSA,A,3,21,24,15,13,20,,,,,,,,1.71,1.42,0.96*0C
$GPGSV,2,1,07,21,67,278,18,15,66,048,38,20,46,302,26,24,38,154,13*72
$GPGSV,2,2,07,13,33,048,22,10,19,289,17,41,,,*79
$GPRMC,142901.000,A,4048.6362,N,07418.5457,W,0.32,240.83,141219,,,A*71
$GPVTG,240.83,T,,M,0.32,N,0.59,K,A*3D
$GPGGA,142902.000,4048.6363,N,07418.5457,W,1,05,1.42,179.5,M,-34.2,M,,*53
$GPGSA,A,3,21,24,15,13,20,,,,,,,,1.71,1.42,0.96*0C
$GPRMC,142902.000,A,4048.6363,N,07418.5457,W,0.29,234.74,141219,,,A*72
$GPVTG,234.74,T,,M,0.29,N,0.54,K,A*31
$GPGGA,142903.000,4048.6365,N,07418.5456,W,1,05,1.42,179.5,M,-34.2,M,,*55
$GPGSA,A,3,21,24,15,13,20,,,,,,,,1.71,1.42,0.96*0C
$GPRMC,142903.000,A,4048.6365,N,07418.5456,W,0.25,232.40,141219,,,A*79
$GPVTG,232.40,T,,M,0.25,N,0.46,K,A*3F
$GPGGA,142904.000,4048.6364,N,07418.5455,W,1,05,1.42,179.5,M,-34.2,M,,*50
$GPGSA,A,3,21,24,15,13,20,,,,,,,,1.71,1.42,0.96*0C
$GPRMC,142904.000,A,4048.6364,N,07418.5455,W,0.14,215.64,141219,,,A*7D
$GPVTG,215.64,T,,M,0.14,N,0.25,K,A*3B
$GPGGA,142905.000,4048.6365,N,07418.5455,W,1,05,1.42,179.4,M,-34.2,M,,*51
$GPGSA,A,3,21,24,15,13,20,,,,,,,,1.71,1.42,0.96*0C
$GPRMC,142905.000,A,4048.6365,N,07418.5455,W,0.09,211.97,141219,,,A*79
$GPVTG,211.97,T,,M,0.09,N,0.16,K,A*3F
$GPGGA,142906.000,4048.6369,N,07418.5458,W,1,05,1.42,179.4,M,-34.2,M,,*53
$GPGSA,A,3,21,24,15,13,20,,,,,,,,1.71,1.42,0.96*0C
$GPGSV,2,1,07,21,67,278,18,15,66,048,38,20,46,302,27,24,38,154,12*72
$GPGSV,2,2,07,13,33,048,22,10,19,289,17,41,,,*79
$GPRMC,142906.000,A,4048.6369,N,07418.5458,W,0.21,279.09,141219,,,A*78
$GPVTG,279.09,T,,M,0.21,N,0.39,K,A*31
$GPGGA,142907.000,4048.6372,N,07418.5460,W,1,05,1.42,179.4,M,-34.2,M,,*53
$GPGSA,A,3,21,24,15,13,20,,,,,,,,1.71,1.42,0.96*0C
$GPRMC,142907.000,A,4048.6372,N,07418.5460,W,0.24,294.97,141219,,,A*79
$GPVTG,294.97,T,,M,0.24,N,0.44,K,A*3A
$GPGGA,142908.000,4048.6377,N,07418.5462,W,1,05,1.42,179.4,M,-34.2,M,,*5B
$GPGSA,A,3,21,24,15,13,20,,,,,,,,1.71,1.42,0.96*0C
$GPRMC,142908.000,A,4048.6377,N,07418.5462,W,0.30,320.63,141219,,,A*71
$GPVTG,320.63,T,,M,0.30,N,0.55,K,A*3A
$GPGGA,142909.000,4048.6379,N,07418.5463,W,1,05,1.42,179.4,M,-34.2,M,,*55
$GPGSA,A,3,21,24,15,13,20,,,,,,,,1.71,1.42,0.96*0C
$GPRMC,142909.000,A,4048.6379,N,07418.5463,W,0.34,324.29,141219,,,A*71
$GPVTG,324.29,T,,M,0.34,N,0.64,K,A*36
$GPGGA,142910.000,4048.6378,N,07418.5463,W,1,05,1.42,179.3,M,-34.2,M,,*5B
$GPGSA,A,3,21,24,15,13,20,,,,,,,,1.71,1.42,0.96*0C
$GPRMC,142910.000,A,4048.6378,N,07418.5463,W,0.27,336.13,141219,,,A*70
$GPVTG,336.13,T,,M,0.27,N,0.50,K,A*39
$GPGGA,142911.000,4048.6377,N,07418.5464,W,1,05,1.42,179.3,M,-34.2,M,,*52
$GPGSA,A,3,21,24,15,13,20,,,,,,,,1.71,1.42,0.96*0C
$GPGSV,2,1,07,21,67,278,19,15,66,048,38,20,46,302,27,24,38,154,14*75
$GPGSV,2,2,07,13,33,048,23,10,19,289,16,43,,,*7B
$GPRMC,142911.000,A,4048.6377,N,07418.5464,W,0.25,337.14,141219,,,A*7D
$GPVTG,337.14,T,,M,0.25,N,0.46,K,A*3A
$GPGGA,142912.000,4048.6378,N,07418.5466,W,1,05,1.42,179.3,M,-34.2,M,,*5C
$GPGSA,A,3,21,24,15,13,20,,,,,,,,1.71,1.42,0.96*0C
$GPRMC,142912.000,A,4048.6378,N,07418.5466,W,0.28,320.53,141219,,,A*7B
$GPVTG,320.53,T,,M,0.28,N,0.52,K,A*37
$GPGGA,142913.000,4048.6373,N,07418.5468,W,1,05,1.42,179.3,M,-34.2,M,,*58
$GPGSA,A,3,21,24,15,13,20,,,,,,,,1.71,1.42,0.96*0C
$GPRMC,142913.000,A,4048.6373,N,07418.5468,W,0.23,282.78,141219,,,A*74
$GPVTG,282.78,T,,M,0.23,N,0.43,K,A*3C
$GPGGA,142914.000,4048.6368,N,07418.5469,W,1,05,1.42,179.3,M,-34.2,M,,*54
$GPGSA,A,3,21,24,15,13,20,,,,,,,,1.71,1.42,0.96*0C
$GPRMC,142914.000,A,4048.6368,N,07418.5469,W,0.27,244.83,141219,,,A*72
$GPVTG,244.83,T,,M,0.27,N,0.50,K,A*34
$GPGGA,142915.000,4048.6369,N,07418.5469,W,1,05,1.42,179.2,M,-34.2,M,,*55
$GPGSA,A,3,21,24,15,13,20,,,,,,,,1.71,1.42,0.96*0C
$GPRMC,142915.000,A,4048.6369,N,07418.5469,W,0.21,233.11,141219,,,A*7F
$GPVTG,233.11,T,,M,0.21,N,0.38,K,A*37
$GPGGA,142916.000,4048.6364,N,07418.5467,W,1,05,1.42,179.2,M,-34.2,M,,*55
$GPGSA,A,3,21,24,15,13,20,,,,,,,,1.71,1.42,0.96*0C
$GPGSV,2,1,07,21,67,278,19,15,66,048,38,20,46,302,26,24,38,154,17*77
$GPGSV,2,2,07,13,33,048,24,10,19,289,16,45,,,*7A
$GPRMC,142916.000,A,4048.6364,N,07418.5467,W,0.20,188.74,141219,,,A*7E
$GPVTG,188.74,T,,M,0.20,N,0.37,K,A*39
$GPGGA,142917.000,4048.6364,N,07418.5467,W,1,05,1.42,179.2,M,-34.2,M,,*54
$GPGSA,A,3,21,24,15,13,20,,,,,,,,1.71,1.42,0.96*0C
$GPRMC,142917.000,A,4048.6364,N,07418.5467,W,0.24,198.00,141219,,,A*79
$GPVTG,198.00,T,,M,0.24,N,0.45,K,A*3A
$GPGGA,142918.000,4048.6367,N,07418.5466,W,1,05,1.42,179.2,M,-34.2,M,,*59
$GPGSA,A,3,21,24,15,13,20,,,,,,,,1.71,1.42,0.96*0C
$GPRMC,142918.000,A,4048.6367,N,07418.5466,W,0.16,205.36,141219,,,A*77
$GPVTG,205.36,T,,M,0.16,N,0.30,K,A*3B
$GPGGA,142919.000,4048.6367,N,07418.5465,W,1,05,1.42,179.1,M,-34.2,M,,*58
$GPGSA,A,3,21,24,15,13,20,,,,,,,,1.71,1.42,0.96*0C
$GPRMC,142919.000,A,4048.6367,N,07418.5465,W,0.15,146.22,141219,,,A*77
$GPVTG,146.22,T,,M,0.15,N,0.28,K,A*30
$GPGGA,142920.000,4048.6362,N,07418.5464,W,1,05,1.42,179.1,M,-34.2,M,,*56
$GPGSA,A,3,21,24,15,13,20,,,,,,,,1.71,1.42,0.96*0C
$GPRMC,142920.000,A,4048.6362,N,07418.5464,W,0.27,147.63,141219,,,A*7C
$GPVTG,147.63,T,,M,0.27,N,0.50,K,A*3A
$GPGGA,142921.000,4048.6356,N,07418.5465,W,1,05,1.42,179.1,M,-34.2,M,,*51
$GPGSA,A,3,21,24,15,13,20,,,,,,,,1.71,1.42,0.96*0C
$GPGSV,2,1,07,21,67,278,22,15,66,048,37,20,46,302,26,24,38,153,17*77
$GPGSV,2,2,07,13,33,048,23,10,19,289,15,46,,,*7D
$GPRMC,142921.000,A,4048.6356,N,07418.5465,W,0.34,166.17,141219,,,A*79
$GPVTG,166.17,T,,M,0.34,N,0.64,K,A*3F
$GPGGA,142922.000,4048.6350,N,07418.5464,W,1,05,1.42,179.1,M,-34.2,M,,*55
$GPGSA,A,3,21,24,15,13,20,,,,,,,,1.71,1.42,0.96*0C
$GPRMC,142922.000,A,4048.6350,N,07418.5464,W,0.45,162.09,141219,,,A*70
$GPVTG,162.09,T,,M,0.45,N,0.84,K,A*3C
$GPGGA,142923.000,4048.6347,N,07418.5466,W,1,05,1.42,179.1,M,-34.2,M,,*50
$GPGSA,A,3,21,24,15,13,20,,,,,,,,1.71,1.42,0.96*0C
$GPRMC,142923.000,A,4048.6347,N,07418.5466,W,0.45,170.89,141219,,,A*7E
$GPVTG,170.89,T,,M,0.45,N,0.83,K,A*30
$GPGGA,142924.000,4048.6346,N,07418.5472,W,1,05,1.42,179.0,M,-34.2,M,,*52
$GPGSA,A,3,21,24,15,13,20,,,,,,,,1.71,1.42,0.96*0C
$GPRMC,142924.000,A,4048.6346,N,07418.5472,W,0.59,213.06,141219,,,A*71
$GPVTG,213.06,T,,M,0.59,N,1.09,K,A*3F
$GPGGA,142925.000,4048.6346,N,07418.5475,W,1,05,1.42,179.0,M,-34.2,M,,*54
$GPGSA,A,3,21,24,15,13,20,,,,,,,,1.71,1.42,0.96*0C
$GPRMC,142925.000,A,4048.6346,N,07418.5475,W,0.63,218.28,141219,,,A*79
$GPVTG,218.28,T,,M,0.63,N,1.17,K,A*3E
$GPGGA,142926.000,4048.6345,N,07418.5476,W,1,05,1.42,179.0,M,-34.2,M,,*57
$GPGSA,A,3,21,24,15,13,20,,,,,,,,1.71,1.42,0.96*0C
$GPGSV,2,1,07,21,67,278,23,15,66,048,37,20,46,302,26,24,38,153,20*72
$GPGSV,2,2,07,13,33,048,23,10,19,289,15,46,,,*7D
$GPRMC,142926.000,A,4048.6345,N,07418.5476,W,0.65,216.12,141219,,,A*7B
$GPVTG,216.12,T,,M,0.65,N,1.21,K,A*3A
$GPGGA,142927.000,4048.6347,N,07418.5475,W,1,05,1.42,178.9,M,-34.2,M,,*5F
$GPGSA,A,3,21,24,15,13,20,,,,,,,,1.71,1.42,0.96*0C
$GPRMC,142927.000,A,4048.6347,N,07418.5475,W,0.48,206.55,141219,,,A*76
$GPVTG,206.55,T,,M,0.48,N,0.89,K,A*34
$GPGGA,142928.000,4048.6349,N,07418.5474,W,1,05,1.42,178.9,M,-34.2,M,,*5F
$GPGSA,A,3,21,24,15,13,20,,,,,,,,1.71,1.42,0.96*0C
$GPRMC,142928.000,A,4048.6349,N,07418.5474,W,0.42,197.61,141219,,,A*70
$GPVTG,197.61,T,,M,0.42,N,0.77,K,A*33
$GPGGA,142929.000,4048.6349,N,07418.5475,W,1,05,1.42,178.9,M,-34.2,M,,*5F
$GPGSA,A,3,21,24,15,13,20,,,,,,,,1.71,1.42,0.96*0C
$GPRMC,142929.000,A,4048.6349,N,07418.5475,W,0.34,194.08,141219,,,A*7D
$GPVTG,194.08,T,,M,0.34,N,0.64,K,A*3C
$GPGGA,142930.000,4048.6351,N,07418.5476,W,1,05,1.42,178.8,M,-34.2,M,,*5C
$GPGSA,A,3,21,24,15,13,20,,,,,,,,1.71,1.42,0.96*0C
$GPRMC,142930.000,A,4048.6351,N,07418.5476,W,0.33,200.23,141219,,,A*7F
$GPVTG,200.23,T,,M,0.33,N,0.61,K,A*39
$GPGGA,142931.000,4048.6353,N,07418.5477,W,1,05,1.42,178.8,M,-34.2,M,,*5E
$GPGSA,A,3,21,24,15,13,20,,,,,,,,1.71,1.42,0.96*0C
$GPGSV,2,1,07,21,67,278,22,15,66,048,38,20,46,302,26,24,38,153,21*7D
$GPGSV,2,2,07,13,33,048,26,10,19,289,16,47,,,*7A
$GPRMC,142931.000,A,4048.6353,N,07418.5477,W,0.21,185.12,141219,,,A*72
$GPVTG,185.12,T,,M,0.21,N,0.39,K,A*3B
$GPGGA,142932.000,4048.6358,N,07418.5478,W,1,05,1.42,178.7,M,-34.2,M,,*56
$GPGSA,A,3,21,24,15,13,20,,,,,,,,1.71,1.42,0.96*0C
$GPRMC,142932.000,A,4048.6358,N,07418.5478,W,0.13,192.41,141219,,,A*74
$GPVTG,192.41,T,,M,0.13,N,0.24,K,A*36
$GPGGA,142933.000,4048.6362,N,07418.5479,W,1,05,1.42,178.7,M,-34.2,M,,*5F
$GPGSA,A,3,21,24,15,13,20,,,,,,,,1.71,1.42,0.96*0C
$GPRMC,142933.000,A,4048.6362,N,07418.5479,W,0.10,205.55,141219,,,A*76
$GPVTG,205.55,T,,M,0.10,N,0.18,K,A*32
$GPGGA,142934.000,4048.6365,N,07418.5481,W,1,05,1.42,178.7,M,-34.2,M,,*58
$GPGSA,A,3,21,24,15,13,20,,,,,,,,1.71,1.42,0.96*0C
$GPRMC,142934.000,A,4048.6365,N,07418.5481,W,0.16,234.76,141219,,,A*74
$GPVTG,234.76,T,,M,0.16,N,0.29,K,A*35
$GPGGA,142935.000,4048.6368,N,07418.5484,W,1,05,1.42,178.6,M,-34.2,M,,*50
$GPGSA,A,3,21,24,15,13,20,,,,,,,,1.71,1.42,0.96*0C
$GPRMC,142935.000,A,4048.6368,N,07418.5484,W,0.14,271.79,141219,,,A*71
$GPVTG,271.79,T,,M,0.14,N,0.25,K,A*35
$GPGGA,142936.000,4048.6370,N,07418.5485,W,1,05,1.42,178.6,M,-34.2,M,,*5B
$GPGSA,A,3,21,24,15,13,20,,,,,,,,1.71,1.42,0.96*0C
$GPGSV,2,1,07,21,67,278,22,15,66,048,38,20,46,302,26,24,38,153,21*7D
$GPGSV,2,2,07,13,33,048,26,10,19,289,15,49,,,*77
$GPRMC,142936.000,A,4048.6370,N,07418.5485,W,0.15,262.51,141219,,,A*73
$GPVTG,262.51,T,,M,0.15,N,0.28,K,A*31
$GPGGA,142937.000,4048.6371,N,07418.5487,W,1,05,1.42,178.5,M,-34.2,M,,*5A
$GPGSA,A,3,21,24,15,13,20,,,,,,,,1.71,1.42,0.96*0C
$GPRMC,142937.000,A,4048.6371,N,07418.5487,W,0.12,267.19,141219,,,A*7F
$GPVTG,267.19,T,,M,0.12,N,0.23,K,A*34
$GPGGA,142938.000,4048.6373,N,07418.5488,W,1,05,1.42,178.5,M,-34.2,M,,*58
$GPGSA,A,3,21,24,15,13,20,,,,,,,,1.71,1.42,0.96*0C
$GPRMC,142938.000,A,4048.6373,N,07418.5488,W,0.17,254.92,141219,,,A*7B
$GPVTG,254.92,T,,M,0.17,N,0.32,K,A*32
$GPGGA,142939.000,4048.6374,N,07418.5488,W,1,05,1.42,178.5,M,-34.2,M,,*5E
$GPGSA,A,3,21,24,15,13,20,,,,,,,,1.71,1.42,0.96*0C
$GPRMC,142939.000,A,4048.6374,N,07418.5488,W,0.13,260.59,141219,,,A*79
$GPVTG,260.59,T,,M,0.13,N,0.23,K,A*36
$GPGGA,142940.000,4048.6370,N,07418.5488,W,1,05,1.42,178.4,M,-34.2,M,,*55
$GPGSA,A,3,21,24,15,13,20,,,,,,,,1.71,1.42,0.96*0C
$GPRMC,142940.000,A,4048.6370,N,07418.5488,W,0.14,245.45,141219,,,A*7E
$GPVTG,245.45,T,,M,0.14,N,0.27,K,A*3F
$GPGGA,142941.000,4048.6366,N,07418.5486,W,1,05,1.42,178.4,M,-34.2,M,,*5D
$GPGSA,A,3,21,24,15,13,20,,,,,,,,1.71,1.42,0.96*0C
$GPGSV,2,1,07,21,67,278,24,15,66,048,35,20,46,302,29,24,38,153,21*79
$GPGSV,2,2,07,13,33,048,19,10,19,289,16,37,,,*71
$GPRMC,142941.000,A,4048.6366,N,07418.5486,W,0.10,251.54,141219,,,A*77
$GPVTG,251.54,T,,M,0.10,N,0.18,K,A*32
$GPGGA,142942.000,4048.6362,N,07418.5488,W,1,05,1.42,178.4,M,-34.2,M,,*54
$GPGSA,A,3,21,24,15,13,20,,,,,,,,1.71,1.42,0.96*0C
$GPRMC,142942.000,A,4048.6362,N,07418.5488,W,0.29,260.63,141219,,,A*72
$GPVTG,260.63,T,,M,0.29,N,0.53,K,A*31
$GPGGA,142943.000,4048.6359,N,07418.5488,W,1,05,1.42,178.3,M,-34.2,M,,*5A
$GPGSA,A,3,21,24,15,13,20,,,,,,,,1.71,1.42,0.96*0C
$GPRMC,142943.000,A,4048.6359,N,07418.5488,W,0.30,253.81,141219,,,A*7F
$GPVTG,253.81,T,,M,0.30,N,0.56,K,A*30
$GPGGA,142944.000,4048.6358,N,07418.5487,W,1,05,1.42,178.3,M,-34.2,M,,*53
$GPGSA,A,3,21,24,15,13,20,,,,,,,,1.71,1.42,0.96*0C
$GPRMC,142944.000,A,4048.6358,N,07418.5487,W,0.23,249.60,141219,,,A*70
$GPVTG,249.60,T,,M,0.23,N,0.43,K,A*32
$GPGGA,142945.000,4048.6355,N,07418.5484,W,1,05,1.42,178.3,M,-34.2,M,,*5C
$GPGSA,A,3,21,24,15,13,20,,,,,,,,1.71,1.42,0.96*0C
$GPRMC,142945.000,A,4048.6355,N,07418.5484,W,0.19,207.41,141219,,,A*7F
$GPVTG,207.41,T,,M,0.19,N,0.36,K,A*30
$GPGGA,142946.000,4048.6351,N,07418.5480,W,1,05,1.42,178.3,M,-34.2,M,,*5F
$GPGSA,A,3,21,24,15,13,20,,,,,,,,1.71,1.42,0.96*0C
$GPGSV,2,1,07,21,67,278,23,15,66,048,40,20,46,302,29,24,38,153,23*7E
$GPGSV,2,2,07,13,33,048,18,10,20,289,17,37,,,*7B
$GPRMC,142946.000,A,4048.6351,N,07418.5480,W,0.21,168.75,141219,,,A*7A
$GPVTG,168.75,T,,M,0.21,N,0.39,K,A*39
$GPGGA,142947.000,4048.6349,N,07418.5478,W,1,05,1.42,178.2,M,-34.2,M,,*51
$GPGSA,A,3,21,24,15,13,20,,,,,,,,1.71,1.42,0.96*0C
$GPRMC,142947.000,A,4048.6349,N,07418.5478,W,0.19,167.90,141219,,,A*7A
$GPVTG,167.90,T,,M,0.19,N,0.36,K,A*39
$GPGGA,142948.000,4048.6347,N,07418.5472,W,1,05,1.42,178.2,M,-34.2,M,,*5A
$GPGSA,A,3,21,24,15,13,20,,,,,,,,1.71,1.42,0.96*0C
$GPRMC,142948.000,A,4048.6347,N,07418.5472,W,0.27,131.71,141219,,,A*70
$GPVTG,131.71,T,,M,0.27,N,0.50,K,A*38
$GPGGA,142949.000,4048.6343,N,07418.5467,W,1,05,1.42,178.2,M,-34.2,M,,*5B
$GPGSA,A,3,21,24,15,13,20,,,,,,,,1.71,1.42,0.96*0C
$GPRMC,142949.000,A,4048.6343,N,07418.5467,W,0.34,123.55,141219,,,A*76
$GPVTG,123.55,T,,M,0.34,N,0.62,K,A*3E
$GPGGA,142950.000,4048.6340,N,07418.5463,W,1,05,1.42,178.2,M,-34.2,M,,*54
$GPGSA,A,3,21,24,15,13,20,,,,,,,,1.71,1.42,0.96*0C
$GPRMC,142950.000,A,4048.6340,N,07418.5463,W,0.37,128.04,141219,,,A*75
$GPVTG,128.04,T,,M,0.37,N,0.69,K,A*39
$GPGGA,142951.000,4048.6339,N,07418.5461,W,1,05,1.42,178.1,M,-34.2,M,,*5A
$GPGSA,A,3,21,24,15,13,20,,,,,,,,1.71,1.42,0.96*0C
$GPGSV,2,1,07,21,67,278,21,15,66,048,40,20,46,302,31,24,38,153,20*76
$GPGSV,2,2,07,13,33,048,19,10,20,289,14,39,,,*77
$GPRMC,142951.000,A,4048.6339,N,07418.5461,W,0.28,144.47,141219,,,A*7B
$GPVTG,144.47,T,,M,0.28,N,0.52,K,A*32
$GPGGA,142952.000,4048.6338,N,07418.5457,W,1,05,1.42,178.1,M,-34.2,M,,*5D
$GPGSA,A,3,21,24,15,13,20,,,,,,,,1.71,1.42,0.96*0C
$GPRMC,142952.000,A,4048.6338,N,07418.5457,W,0.34,130.47,141219,,,A*72
$GPVTG,130.47,T,,M,0.34,N,0.64,K,A*39
$GPGGA,142953.000,4048.6339,N,07418.5456,W,1,05,1.42,178.1,M,-34.2,M,,*5C
$GPGSA,A,3,21,24,15,13,20,,,,,,,,1.71,1.42,0.96*0C
$GPRMC,142953.000,A,4048.6339,N,07418.5456,W,0.32,135.48,141219,,,A*7F
$GPVTG,135.48,T,,M,0.32,N,0.59,K,A*3B
$GPGGA,142954.000,4048.6339,N,07418.5455,W,1,05,1.42,178.1,M,-34.2,M,,*58
$GPGSA,A,3,21,24,15,13,20,,,,,,,,1.71,1.42,0.96*0C
$GPRMC,142954.000,A,4048.6339,N,07418.5455,W,0.33,143.08,141219,,,A*7F
$GPVTG,143.08,T,,M,0.33,N,0.61,K,A*34
$GPGGA,142955.000,4048.6339,N,07418.5456,W,1,05,1.42,178.0,M,-34.2,M,,*5B
$GPGSA,A,3,21,24,15,13,20,,,,,,,,1.71,1.42,0.96*0C
$GPRMC,142955.000,A,4048.6339,N,07418.5456,W,0.38,178.27,141219,,,A*73
$GPVTG,178.27,T,,M,0.38,N,0.70,K,A*3A
$GPGGA,142956.000,4048.6338,N,07418.5455,W,1,05,1.42,178.0,M,-34.2,M,,*5A
$GPGSA,A,3,21,24,15,13,20,,,,,,,,1.71,1.42,0.96*0C
$GPGSV,2,1,07,21,67,277,19,15,66,048,41,20,47,302,32,24,38,153,18*7A
$GPGSV,2,2,07,13,33,048,18,10,20,289,15,40,,,*79
$GPRMC,142956.000,A,4048.6338,N,07418.5455,W,0.37,167.75,141219,,,A*74
$GPVTG,167.75,T,,M,0.37,N,0.69,K,A*34
$GPGGA,142957.000,4048.6337,N,07418.5453,W,1,05,1.42,178.0,M,-34.2,M,,*52
$GPGSA,A,3,21,24,15,13,20,,,,,,,,1.71,1.42,0.96*0C
$GPRMC,142957.000,A,4048.6337,N,07418.5453,W,0.40,158.75,141219,,,A*70
$GPVTG,158.75,T,,M,0.40,N,0.74,K,A*34
$GPGGA,142958.000,4048.6336,N,07418.5449,W,1,05,1.42,178.0,M,-34.2,M,,*57
$GPGSA,A,3,21,24,15,13,20,,,,,,,,1.71,1.42,0.96*0C
$GPRMC,142958.000,A,4048.6336,N,07418.5449,W,0.42,140.32,141219,,,A*7D
$GPVTG,140.32,T,,M,0.42,N,0.77,K,A*3F
$GPGGA,142959.000,4048.6333,N,07418.5446,W,1,05,1.42,177.9,M,-34.2,M,,*5A
$GPGSA,A,3,21,24,15,13,20,,,,,,,,1.71,1.42,0.96*0C
$GPRMC,142959.000,A,4048.6333,N,07418.5446,W,0.46,145.93,141219,,,A*7C
$GPVTG,145.93,T,,M,0.46,N,0.85,K,A*38
$GPGGA,143000.000,4048.6330,N,07418.5446,W,1,05,1.42,177.9,M,-34.2,M,,*5D
$GPGSA,A,3,21,24,15,13,20,,,,,,,,1.71,1.42,0.96*0C
$GPRMC,143000.000,A,4048.6330,N,07418.5446,W,0.39,165.12,141219,,,A*78
$GPVTG,165.12,T,,M,0.39,N,0.72,K,A*33
$GPGGA,143001.000,4048.6327,N,07418.5443,W,1,05,1.42,177.9,M,-34.2,M,,*5F
$GPGSA,A,3,21,24,15,13,20,,,,,,,,1.71,1.42,0.96*0C
$GPGSV,2,1,07,21,67,277,19,15,66,048,41,20,47,302,32,24,38,153,18*7A
$GPGSV,2,2,07,13,33,048,18,10,20,289,,44,,,*79
$GPRMC,143001.000,A,4048.6327,N,07418.5443,W,0.54,151.12,141219,,,A*76
$GPVTG,151.12,T,,M,0.54,N,1.00,K,A*3B
$GPGGA,143002.000,4048.6326,N,07418.5444,W,1,05,1.42,177.9,M,-34.2,M,,*5A
$GPGSA,A,3,21,24,15,13,20,,,,,,,,1.71,1.42,0.96*0C
$GPRMC,143002.000,A,4048.6326,N,07418.5444,W,0.43,159.94,141219,,,A*73
$GPVTG,159.94,T,,M,0.43,N,0.80,K,A*32
$GPGGA,143003.000,4048.6325,N,07418.5441,W,1,05,1.42,177.8,M,-34.2,M,,*5C
$GPGSA,A,3,21,24,15,13,20,,,,,,,,1.71,1.42,0.96*0C
$GPRMC,143003.000,A,4048.6325,N,07418.5441,W,0.50,143.40,141219,,,A*74
$GPVTG,143.40,T,,M,0.50,N,0.93,K,A*30
$GPGGA,143004.000,4048.6326,N,07418.5442,W,1,05,1.42,177.8,M,-34.2,M,,*5B
$GPGSA,A,3,21,24,15,13,20,,,,,,,,1.71,1.42,0.96*0C
$GPRMC,143004.000,A,4048.6326,N,07418.5442,W,0.34,154.49,141219,,,A*7E
$GPVTG,154.49,T,,M,0.34,N,0.63,K,A*32
$GPGGA,143005.000,4048.6325,N,07418.5441,W,1,05,1.42,177.8,M,-34.2,M,,*5A
$GPGSA,A,3,21,24,15,13,20,,,,,,,,1.71,1.42,0.96*0C
$GPRMC,143005.000,A,4048.6325,N,07418.5441,W,0.33,147.43,141219,,,A*70
$GPVTG,147.43,T,,M,0.33,N,0.62,K,A*3C
$GPGGA,143006.000,4048.6322,N,07418.5442,W,1,05,1.42,177.8,M,-34.2,M,,*5D
$GPGSA,A,3,21,24,15,13,20,,,,,,,,1.71,1.42,0.96*0C
$GPGSV,2,1,07,21,67,277,20,15,66,048,41,20,47,302,32,24,38,153,18*70
$GPGSV,2,2,07,13,33,048,17,10,20,289,,44,,,*76
$GPRMC,143006.000,A,4048.6322,N,07418.5442,W,0.34,171.42,141219,,,A*74
$GPVTG,171.42,T,,M,0.34,N,0.64,K,A*39
$GPGGA,143007.000,4048.6321,N,07418.5441,W,1,05,1.42,177.7,M,-34.2,M,,*53
$GPGSA,A,3,21,24,15,13,20,,,,,,,,1.71,1.42,0.96*0C
$GPRMC,143007.000,A,4048.6321,N,07418.5441,W,0.35,155.14,141219,,,A*71
$GPVTG,155.14,T,,M,0.35,N,0.65,K,A*3C
$GPGGA,143008.000,4048.6321,N,07418.5443,W,1,05,1.42,177.7,M,-34.2,M,,*5E
$GPGSA,A,3,21,24,15,13,20,,,,,,,,1.71,1.42,0.96*0C
$GPRMC,143008.000,A,4048.6321,N,07418.5443,W,0.28,198.45,141219,,,A*75
$GPVTG,198.45,T,,M,0.28,N,0.52,K,A*31
$GPGGA,143009.000,4048.6322,N,07418.5443,W,1,05,1.42,177.7,M,-34.2,M,,*5C
$GPGSA,A,3,21,24,15,13,20,,,,,,,,1.71,1.42,0.96*0C
$GPRMC,143009.000,A,4048.6322,N,07418.5443,W,0.21,166.01,141219,,,A*7F
$GPVTG,166.01,T,,M,0.21,N,0.38,K,A*35
$GPGGA,143010.000,4048.6320,N,07418.5444,W,1,05,1.42,177.7,M,-34.2,M,,*51
$GPGSA,A,3,21,24,15,13,20,,,,,,,,1.71,1.42,0.96*0C
$GPRMC,143010.000,A,4048.6320,N,07418.5444,W,0.25,184.18,141219,,,A*72
$GPVTG,184.18,T,,M,0.25,N,0.47,K,A*3D
$GPGGA,143011.000,4048.6316,N,07418.5444,W,1,05,1.42,177.7,M,-34.2,M,,*55
$GPGSA,A,3,21,24,15,13,20,,,,,,,,1.71,1.42,0.96*0C
$GPGSV,2,1,07,21,67,277,20,15,66,048,41,20,47,302,32,24,38,153,18*70
$GPGSV,2,2,07,13,33,048,17,10,20,289,16,50,,,*74
$GPRMC,143011.000,A,4048.6316,N,07418.5444,W,0.35,174.93,141219,,,A*7B
$GPVTG,174.93,T,,M,0.35,N,0.65,K,A*30
$GPGGA,143012.000,4048.6313,N,07418.5445,W,1,05,1.42,177.6,M,-34.2,M,,*53
$GPGSA,A,3,21,24,15,13,20,,,,,,,,1.71,1.42,0.96*0C
$GPRMC,143012.000,A,4048.6313,N,07418.5445,W,0.35,178.16,141219,,,A*7D
$GPVTG,178.16,T,,M,0.35,N,0.64,K,A*30
$GPGGA,143013.000,4048.6311,N,07418.5444,W,1,05,1.42,177.6,M,-34.2,M,,*51
$GPGSA,A,3,21,24,15,13,20,,,,,,,,1.71,1.42,0.96*0C
$GPRMC,143013.000,A,4048.6311,N,07418.5444,W,0.43,174.77,141219,,,A*75
$GPVTG,174.77,T,,M,0.43,N,0.80,K,A*30
$GPGGA,143014.000,4048.6310,N,07418.5443,W,1,05,1.42,177.6,M,-34.2,M,,*50
$GPGSA,A,3,21,24,15,13,20,,,,,,,,1.71,1.42,0.96*0C
$GPRMC,143014.000,A,4048.6310,N,07418.5443,W,0.37,176.48,141219,,,A*79
$GPVTG,176.48,T,,M,0.37,N,0.68,K,A*3B
$GPGGA,143015.000,4048.6309,N,07418.5443,W,1,05,1.42,177.6,M,-34.2,M,,*59
$GPGSA,A,3,21,24,15,13,20,,,,,,,,1.71,1.42,0.96*0C
$GPRMC,143015.000,A,4048.6309,N,07418.5443,W,0.39,185.84,141219,,,A*72
$GPVTG,185.84,T,,M,0.39,N,0.73,K,A*33
$GPGGA,143016.000,4048.6309,N,07418.5442,W,1,05,1.42,177.5,M,-34.2,M,,*58
$GPGSA,A,3,21,24,15,13,20,,,,,,,,1.71,1.42,0.96*0C
$GPGSV,2,1,07,21,67,277,19,15,66,048,41,20,47,302,32,24,38,153,18*7A
$GPGSV,2,2,07,13,33,048,16,10,20,289,15,42,,,*75
$GPRMC,143016.000,A,4048.6309,N,07418.5442,W,0.36,158.98,141219,,,A*72
$GPVTG,158.98,T,,M,0.36,N,0.67,K,A*34
$GPGGA,143017.000,4048.6307,N,07418.5441,W,1,05,1.42,177.5,M,-34.2,M,,*54
$GPGSA,A,3,21,24,15,13,20,,,,,,,,1.71,1.42,0.96*0C
$GPRMC,143017.000,A,4048.6307,N,07418.5441,W,0.39,170.48,141219,,,A*76
$GPVTG,170.48,T,,M,0.39,N,0.73,K,A*39
$GPGGA,143018.000,4048.6306,N,07418.5441,W,1,05,1.42,177.5,M,-34.2,M,,*5A
$GPGSA,A,3,21,24,15,13,20,,,,,,,,1.71,1.42,0.96*0C
$GPRMC,143018.000,A,4048.6306,N,07418.5441,W,0.40,175.30,141219,,,A*7C
$GPVTG,175.30,T,,M,0.40,N,0.75,K,A*3B
$GPGGA,143019.000,4048.6305,N,07418.5439,W,1,05,1.42,177.4,M,-34.2,M,,*56
$GPGSA,A,3,21,24,15,13,20,,,,,,,,1.71,1.42,0.96*0C
$GPRMC,143019.000,A,4048.6305,N,07418.5439,W,0.44,155.98,141219,,,A*75
$GPVTG,155.98,T,,M,0.44,N,0.82,K,A*37
$GPGGA,143020.000,4048.6307,N,07418.5439,W,1,05,1.42,177.4,M,-34.2,M,,*5E
$GPGSA,A,3,21,24,15,13,20,,,,,,,,1.71,1.42,0.96*0C
$GPRMC,143020.000,A,4048.6307,N,07418.5439,W,0.34,162.92,141219,,,A*74
$GPVTG,162.92,T,,M,0.34,N,0.63,K,A*31
$GPGGA,143021.000,4048.6303,N,07418.5439,W,1,05,1.42,177.4,M,-34.2,M,,*5B
$GPGSA,A,3,21,24,15,13,20,,,,,,,,1.71,1.42,0.96*0C
$GPGSV,2,1,07,21,67,277,19,15,66,048,41,20,47,302,32,24,38,153,17*75
$GPGSV,2,2,07,13,33,048,16,51,32,224,,10,20,289,13*44
$GPRMC,143021.000,A,4048.6303,N,07418.5439,W,0.40,167.79,141219,,,A*72
$GPVTG,167.79,T,,M,0.40,N,0.73,K,A*33
$GPGGA,143022.000,4048.6299,N,07418.5440,W,1,05,1.42,177.4,M,-34.2,M,,*54
$GPGSA,A,3,21,24,15,13,20,,,,,,,,1.71,1.42,0.96*0C
$GPRMC,143022.000,A,4048.6299,N,07418.5440,W,0.39,172.75,141219,,,A*7B
$GPVTG,172.75,T,,M,0.39,N,0.72,K,A*34
$GPGGA,143023.000,4048.6298,N,07418.5441,W,1,05,1.42,177.3,M,-34.2,M,,*52
$GPGSA,A,3,21,24,15,13,20,,,,,,,,1.71,1.42,0.96*0C
$GPRMC,143023.000,A,4048.6298,N,07418.5441,W,0.34,176.41,141219,,,A*74
$GPVTG,176.41,T,,M,0.34,N,0.64,K,A*3D
$GPGGA,143024.000,4048.6298,N,07418.5442,W,1,05,1.42,177.3,M,-34.2,M,,*56
$GPGSA,A,3,21,24,15,13,20,,,,,,,,1.71,1.42,0.96*0C
$GPRMC,143024.000,A,4048.6298,N,07418.5442,W,0.25,188.33,141219,,,A*74
$GPVTG,188.33,T,,M,0.25,N,0.46,K,A*39
$GPGGA,143025.000,4048.6299,N,07418.5446,W,1,05,1.42,177.3,M,-34.2,M,,*52
$GPGSA,A,3,21,24,15,13,20,,,,,,,,1.71,1.42,0.96*0C
$GPRMC,143025.000,A,4048.6299,N,07418.5446,W,0.25,236.97,141219,,,A*78
$GPVTG,236.97,T,,M,0.25,N,0.46,K,A*31
$GPGGA,143026.000,4048.6300,N,07418.5449,W,1,05,1.42,177.3,M,-34.2,M,,*5F
$GPGSA,A,3,21,24,15,13,20,,,,,,,,1.71,1.42,0.96*0C
$GPGSV,2,1,07,21,67,277,19,15,65,048,41,20,47,302,32,24,38,153,17*76
$GPGSV,2,2,07,13,33,048,17,51,32,224,,10,20,289,*47
$GPRMC,143026.000,A,4048.6300,N,07418.5449,W,0.29,278.31,141219,,,A*7F
$GPVTG,278.31,T,,M,0.29,N,0.53,K,A*3F
$GPGGA,143027.000,4048.6296,N,07418.5450,W,1,05,1.42,177.3,M,-34.2,M,,*58
$GPGSA,A,3,21,24,15,13,20,,,,,,,,1.71,1.42,0.96*0C
$GPRMC,143027.000,A,4048.6296,N,07418.5450,W,0.29,245.82,141219,,,A*7E
$GPVTG,245.82,T,,M,0.29,N,0.54,K,A*3E
$GPGGA,143028.000,4048.6295,N,07418.5451,W,1,05,1.42,177.2,M,-34.2,M,,*54
$GPGSA,A,3,21,24,15,13,20,,,,,,,,1.71,1.42,0.96*0C
$GPRMC,143028.000,A,4048.6295,N,07418.5451,W,0.21,238.55,141219,,,A*7B
$GPVTG,238.55,T,,M,0.21,N,0.40,K,A*33
$GPGGA,143029.000,4048.6296,N,07418.5451,W,1,05,1.42,177.2,M,-34.2,M,,*56
$GPGSA,A,3,21,24,15,13,20,,,,,,,,1.71,1.42,0.96*0C
$GPRMC,143029.000,A,4048.6296,N,07418.5451,W,0.02,291.16,141219,,,A*7C
$GPVTG,291.16,T,,M,0.02,N,0.04,K,A*36
$GPGGA,143030.000,4048.6297,N,07418.5451,W,1,05,1.42,177.2,M,-34.2,M,,*5F
$GPGSA,A,3,21,24,15,13,20,,,,,,,,1.71,1.42,0.96*0C
$GPRMC,143030.000,A,4048.6297,N,07418.5451,W,0.13,34.29,141219,,,A*44
$GPVTG,34.29,T,,M,0.13,N,0.25,K,A*04
$GPGGA,143031.000,4048.6294,N,07418.5455,W,1,05,1.42,177.1,M,-34.2,M,,*5A
$GPGSA,A,3,21,24,15,13,20,,,,,,,,1.71,1.42,0.96*0C
$GPGSV,2,1,07,21,67,276,20,15,65,048,41,20,47,302,31,24,39,153,16*7E
$GPGSV,2,2,07,13,33,048,17,10,20,289,,48,14,248,*41
$GPRMC,143031.000,A,4048.6294,N,07418.5455,W,0.24,242.24,141219,,,A*78
$GPVTG,242.24,T,,M,0.24,N,0.44,K,A*39
$GPGGA,143032.000,4048.6290,N,07418.5456,W,1,05,1.42,177.1,M,-34.2,M,,*5E
$GPGSA,A,3,21,24,15,13,20,,,,,,,,1.71,1.42,0.96*0C
$GPRMC,143032.000,A,4048.6290,N,07418.5456,W,0.38,213.38,141219,,,A*78
$GPVTG,213.38,T,,M,0.38,N,0.71,K,A*3B
$GPGGA,143033.000,4048.6293,N,07418.5457,W,1,05,1.42,177.0,M,-34.2,M,,*5C
$GPGSA,A,3,21,24,15,13,20,,,,,,,,1.71,1.42,0.96*0C
$GPRMC,143033.000,A,4048.6293,N,07418.5457,W,0.25,232.59,141219,,,A*73
$GPVTG,232.59,T,,M,0.25,N,0.46,K,A*37
$GPGGA,143034.000,4048.6289,N,07418.5456,W,1,05,1.42,177.0,M,-34.2,M,,*51
$GPGSA,A,3,21,24,15,13,20,,,,,,,,1.71,1.42,0.96*0C
$GPRMC,143034.000,A,4048.6289,N,07418.5456,W,0.39,208.25,141219,,,A*71
$GPVTG,208.25,T,,M,0.39,N,0.73,K,A*3E
$GPGGA,143035.000,4048.6289,N,07418.5455,W,1,05,1.42,176.9,M,-34.2,M,,*5B
$GPGSA,A,3,21,24,15,13,20,,,,,,,,1.71,1.42,0.96*0C
$GPRMC,143035.000,A,4048.6289,N,07418.5455,W,0.42,193.48,141219,,,A*75
$GPVTG,193.48,T,,M,0.42,N,0.78,K,A*33
$GPGGA,143036.000,4048.6293,N,07418.5456,W,1,05,1.42,176.9,M,-34.2,M,,*50
$GPGSA,A,3,21,24,15,13,20,,,,,,,,1.71,1.42,0.96*0C
$GPGSV,2,1,07,21,67,276,19,15,65,048,41,20,47,302,31,24,39,153,13*71
$GPGSV,2,2,07,13,33,048,17,10,20,289,,48,14,248,*41
$GPRMC,143036.000,A,4048.6293,N,07418.5456,W,0.31,211.77,141219,,,A*7F
$GPVTG,211.77,T,,M,0.31,N,0.57,K,A*3F
$GPGGA,143037.000,4048.6304,N,07418.5454,W,1,05,1.42,176.8,M,-34.2,M,,*5D
$GPGSA,A,3,21,24,15,13,20,,,,,,,,1.71,1.42,0.96*0C
$GPRMC,143037.000,A,4048.6304,N,07418.5454,W,0.23,222.59,141219,,,A*7C
$GPVTG,222.59,T,,M,0.23,N,0.43,K,A*35
$GPGGA,143038.000,4048.6317,N,07418.5451,W,1,05,1.42,176.8,M,-34.2,M,,*55
$GPGSA,A,3,21,24,15,13,20,,,,,,,,1.71,1.42,0.96*0C
$GPRMC,143038.000,A,4048.6317,N,07418.5451,W,0.07,333.34,141219,,,A*78
$GPVTG,333.34,T,,M,0.07,N,0.14,K,A*3B
$GPGGA,143039.000,4048.6324,N,07418.5449,W,1,05,1.42,176.7,M,-34.2,M,,*52
$GPGSA,A,3,21,24,15,13,20,,,,,,,,1.71,1.42,0.96*0C
$GPRMC,143039.000,A,4048.6324,N,07418.5449,W,0.33,29.26,141219,,,A*4C
$GPVTG,29.26,T,,M,0.33,N,0.61,K,A*05
$GPGGA,143040.000,4048.6329,N,07418.5449,W,1,05,1.42,176.7,M,-34.2,M,,*51
$GPGSA,A,3,21,24,15,13,20,,,,,,,,1.71,1.42,0.96*0C
$GPRMC,143040.000,A,4048.6329,N,07418.5449,W,0.36,19.84,141219,,,A*41
$GPVTG,19.84,T,,M,0.36,N,0.66,K,A*0C
$GPGGA,143041.000,4048.6334,N,07418.5450,W,1,05,1.42,176.6,M,-34.2,M,,*55
$GPGSA,A,3,21,24,15,13,20,,,,,,,,1.71,1.42,0.96*0C
$GPGSV,2,1,07,21,67,276,20,15,65,048,41,20,47,302,31,24,39,153,17*7F
$GPGSV,2,2,07,13,33,048,17,10,20,289,17,33,14,111,*44
$GPRMC,143041.000,A,4048.6334,N,07418.5450,W,0.30,352.22,141219,,,A*72
$GPVTG,352.22,T,,M,0.30,N,0.56,K,A*39
$GPGGA,143042.000,4048.6339,N,07418.5451,W,1,05,1.52,176.6,M,-34.2,M,,*5B
$GPGSA,A,3,21,24,15,13,20,,,,,,,,3.74,1.52,3.42*00
$GPRMC,143042.000,A,4048.6339,N,07418.5451,W,0.32,343.57,141219,,,A*7D
$GPVTG,343.57,T,,M,0.32,N,0.60,K,A*3C
$GPGGA,143043.000,4048.6344,N,07418.5451,W,1,05,1.42,176.5,M,-34.2,M,,*52
$GPGSA,A,3,21,24,15,13,20,,,,,,,,1.71,1.42,0.96*0C
$GPRMC,143043.000,A,4048.6344,N,07418.5451,W,0.33,349.14,141219,,,A*7A
$GPVTG,349.14,T,,M,0.33,N,0.62,K,A*32
$GPGGA,143044.000,4048.6346,N,07418.5451,W,1,05,1.52,176.5,M,-34.2,M,,*56
$GPGSA,A,3,21,24,15,13,20,,,,,,,,3.74,1.52,3.42*00
$GPRMC,143044.000,A,4048.6346,N,07418.5451,W,0.30,344.72,141219,,,A*71
$GPVTG,344.72,T,,M,0.30,N,0.56,K,A*3B
$GPGGA,143045.000,4048.6348,N,07418.5451,W,1,05,1.42,176.4,M,-34.2,M,,*59
$GPGSA,A,3,21,24,15,13,20,,,,,,,,1.71,1.42,0.96*0C
$GPRMC,143045.000,A,4048.6348,N,07418.5451,W,0.29,346.21,141219,,,A*72
$GPVTG,346.21,T,,M,0.29,N,0.54,K,A*35
$GPGGA,143046.000,4048.6348,N,07418.5451,W,1,05,1.53,176.4,M,-34.2,M,,*5A
$GPGSA,A,3,21,24,15,13,20,,,,,,,,3.74,1.53,3.42*01
$GPGSV,2,1,07,21,67,276,21,15,65,048,41,20,47,302,32,24,39,153,16*7C
$GPGSV,2,2,07,13,33,048,19,10,20,289,16,33,14,111,*4B
$GPRMC,143046.000,A,4048.6348,N,07418.5451,W,0.23,9.67,141219,,,A*71
$GPVTG,9.67,T,,M,0.23,N,0.43,K,A*33
$GPGGA,143047.000,4048.6347,N,07418.5452,W,1,05,1.53,176.3,M,-34.2,M,,*50
$GPGSA,A,3,21,24,15,13,20,,,,,,,,3.74,1.53,3.42*01
$GPRMC,143047.000,A,4048.6347,N,07418.5452,W,0.16,342.37,141219,,,A*73
$GPVTG,342.37,T,,M,0.16,N,0.30,K,A*38
$GPGGA,143048.000,4048.6347,N,07418.5452,W,1,05,1.42,176.3,M,-34.2,M,,*5F
$GPGSA,A,3,21,24,15,13,20,,,,,,,,1.71,1.42,0.96*0C
$GPRMC,143048.000,A,4048.6347,N,07418.5452,W,0.14,353.59,141219,,,A*76
$GPVTG,353.59,T,,M,0.14,N,0.26,K,A*35
$GPGGA,143049.000,4048.6347,N,07418.5451,W,1,05,1.53,176.2,M,-34.2,M,,*5C
$GPGSA,A,3,21,24,15,13,20,,,,,,,,3.74,1.53,3.42*01
$GPRMC,143049.000,A,4048.6347,N,07418.5451,W,0.09,14.70,141219,,,A*43
$GPVTG,14.70,T,,M,0.09,N,0.16,K,A*01
$GPGGA,143050.000,4048.6347,N,07418.5451,W,1,05,1.53,176.2,M,-34.2,M,,*54
$GPGSA,A,3,21,24,15,13,20,,,,,,,,3.74,1.53,3.42*01
$GPRMC,143050.000,A,4048.6347,N,07418.5451,W,0.08,328.68,141219,,,A*7F
$GPVTG,328.68,T,,M,0.08,N,0.15,K,A*36
$GPGGA,143051.000,4048.6344,N,07418.5452,W,1,05,1.42,176.1,M,-34.2,M,,*56
$GPGSA,A,3,21,24,15,13,20,,,,,,,,1.71,1.42,0.96*0C
$GPGSV,2,1,07,21,67,276,18,15,65,048,41,20,47,302,32,24,39,153,18*78
$GPGSV,2,2,07,13,33,048,19,51,32,224,,10,20,289,16*4E
$GPRMC,143051.000,A,4048.6344,N,07418.5452,W,0.35,213.07,141219,,,A*70
$GPVTG,213.07,T,,M,0.35,N,0.65,K,A*3F
$GPGGA,143052.000,4048.6344,N,07418.5453,W,1,05,1.42,176.1,M,-34.2,M,,*54
$GPGSA,A,3,21,24,15,13,20,,,,,,,,1.71,1.42,0.96*0C
$GPRMC,143052.000,A,4048.6344,N,07418.5453,W,0.34,204.52,141219,,,A*75
$GPVTG,204.52,T,,M,0.34,N,0.62,K,A*3F
$GPGGA,143053.000,4048.6343,N,07418.5456,W,1,05,1.42,176.0,M,-34.2,M,,*56
$GPGSA,A,3,21,24,15,13,20,,,,,,,,1.71,1.42,0.96*0C
$GPRMC,143053.000,A,4048.6343,N,07418.5456,W,0.41,215.85,141219,,,A*7E
$GPVTG,215.85,T,,M,0.41,N,0.76,K,A*32
$GPGGA,143054.000,4048.6346,N,07418.5458,W,1,05,1.42,175.9,M,-34.2,M,,*50
$GPGSA,A,3,21,24,15,13,20,,,,,,,,1.71,1.42,0.96*0C
$GPRMC,143054.000,A,4048.6346,N,07418.5458,W,0.31,244.10,141219,,,A*7D
$GPVTG,244.10,T,,M,0.31,N,0.57,K,A*3E
$GPGGA,143055.000,4048.6345,N,07418.5459,W,1,05,1.42,175.9,M,-34.2,M,,*53
$GPGSA,A,3,21,24,15,13,20,,,,,,,,1.71,1.42,0.96*0C
$GPRMC,143055.000,A,4048.6345,N,07418.5459,W,0.34,235.45,141219,,,A*7D
$GPVTG,235.45,T,,M,0.34,N,0.62,K,A*3B
$GPGGA,143056.000,4048.6344,N,07418.5459,W,1,05,1.42,175.8,M,-34.2,M,,*50
$GPGSA,A,3,21,24,15,13,20,,,,,,,,1.71,1.42,0.96*0C
$GPGSV,2,1,07,21,67,276,19,15,65,048,42,20,47,302,32,24,39,153,18*7A
$GPGSV,2,2,07,13,32,048,19,51,32,224,,10,20,289,17*4E
$GPRMC,143056.000,A,4048.6344,N,07418.5459,W,0.25,216.90,141219,,,A*76
$GPVTG,216.90,T,,M,0.25,N,0.46,K,A*34
$GPGGA,143057.000,4048.6341,N,07418.5460,W,1,05,1.42,175.8,M,-34.2,M,,*5E
$GPGSA,A,3,21,24,15,13,20,,,,,,,,1.71,1.42,0.96*0C
$GPRMC,143057.000,A,4048.6341,N,07418.5460,W,0.32,219.46,141219,,,A*7A
$GPVTG,219.46,T,,M,0.32,N,0.59,K,A*38
$GPGGA,143058.000,4048.6342,N,07418.5459,W,1,05,1.42,175.7,M,-34.2,M,,*57
$GPGSA,A,3,21,24,15,13,20,,,,,,,,1.71,1.42,0.96*0C
$GPRMC,143058.000,A,4048.6342,N,07418.5459,W,0.19,194.98,141219,,,A*70
$GPVTG,194.98,T,,M,0.19,N,0.35,K,A*3E
$GPGGA,143059.000,4048.6339,N,07418.5459,W,1,05,1.42,175.6,M,-34.2,M,,*5B
$GPGSA,A,3,21,24,15,13,20,,,,,,,,1.71,1.42,0.96*0C
$GPRMC,143059.000,A,4048.6339,N,07418.5459,W,0.33,171.29,141219,,,A*74
$GPVTG,171.29,T,,M,0.33,N,0.62,K,A*35
$GPGGA,143100.000,4048.6338,N,07418.5460,W,1,05,1.42,175.6,M,-34.2,M,,*5D
$GPGSA,A,3,21,24,15,13,20,,,,,,,,1.71,1.42,0.96*0C
$GPRMC,143100.000,A,4048.6338,N,07418.5460,W,0.30,168.81,141219,,,A*7B
$GPVTG,168.81,T,,M,0.30,N,0.56,K,A*3B
$GPGGA,143101.000,4048.6336,N,07418.5460,W,1,05,1.42,175.5,M,-34.2,M,,*51
$GPGSA,A,3,21,24,15,13,20,,,,,,,,1.71,1.42,0.96*0C
$GPGSV,2,1,07,21,67,276,19,15,65,048,42,20,47,302,32,24,39,153,20*71
$GPGSV,2,2,07,13,32,048,19,10,20,289,18,48,14,248,*47
$GPRMC,143101.000,A,4048.6336,N,07418.5460,W,0.35,169.01,141219,,,A*78
$GPVTG,169.01,T,,M,0.35,N,0.64,K,A*36
$GPGGA,143102.000,4048.6336,N,07418.5460,W,1,05,1.42,175.4,M,-34.2,M,,*53
$GPGSA,A,3,21,24,15,13,20,,,,,,,,1.71,1.42,0.96*0C
$GPRMC,143102.000,A,4048.6336,N,07418.5460,W,0.28,151.92,141219,,,A*76
$GPVTG,151.92,T,,M,0.28,N,0.53,K,A*3F
$GPGGA,143103.000,4048.6336,N,07418.5461,W,1,05,1.42,175.4,M,-34.2,M,,*53
$GPGSA,A,3,21,24,15,13,20,,,,,,,,1.71,1.42,0.96*0C
$GPRMC,143103.000,A,4048.6336,N,07418.5461,W,0.29,177.01,141219,,,A*79
$GPVTG,177.01,T,,M,0.29,N,0.54,K,A*37
$GPGGA,143104.000,4048.6336,N,07418.5463,W,1,05,1.42,175.3,M,-34.2,M,,*51
$GPGSA,A,3,21,24,15,13,20,,,,,,,,1.71,1.42,0.96*0C
$GPRMC,143104.000,A,4048.6336,N,07418.5463,W,0.27,216.57,141219,,,A*75
$GPVTG,216.57,T,,M,0.27,N,0.49,K,A*32
$GPGGA,143105.000,4048.6335,N,07418.5463,W,1,05,1.42,175.2,M,-34.2,M,,*52
$GPGSA,A,3,21,24,15,13,20,,,,,,,,1.71,1.42,0.96*0C
$GPRMC,143105.000,A,4048.6335,N,07418.5463,W,0.24,198.60,141219,,,A*75
$GPVTG,198.60,T,,M,0.24,N,0.45,K,A*3C
$GPGGA,143106.000,4048.6333,N,07418.5463,W,1,05,1.42,175.1,M,-34.2,M,,*54
$GPGSA,A,3,21,24,15,13,20,,,,,,,,1.71,1.42,0.96*0C
$GPGSV,2,1,07,21,67,276,19,15,65,048,42,20,47,302,32,24,39,153,19*7B
$GPGSV,2,2,07,13,32,048,19,10,20,289,19,48,14,248,*46
$GPRMC,143106.000,A,4048.6333,N,07418.5463,W,0.23,193.34,141219,,,A*7D
$GPVTG,193.34,T,,M,0.23,N,0.43,K,A*37
$GPGGA,143107.000,4048.6331,N,07418.5464,W,1,05,1.42,175.1,M,-34.2,M,,*50
$GPGSA,A,3,21,24,15,13,20,,,,,,,,1.71,1.42,0.96*0C
$GPRMC,143107.000,A,4048.6331,N,07418.5464,W,0.29,204.06,141219,,,A*7F
$GPVTG,204.06,T,,M,0.29,N,0.53,K,A*30
$GPGGA,143108.000,4048.6331,N,07418.5466,W,1,05,1.42,175.0,M,-34.2,M,,*5C
$GPGSA,A,3,21,24,15,13,20,,,,,,,,1.71,1.42,0.96*0C
$GPRMC,143108.000,A,4048.6331,N,07418.5466,W,0.33,224.40,141219,,,A*79
$GPVTG,224.40,T,,M,0.33,N,0.62,K,A*39
$GPGGA,143109.000,4048.6329,N,07418.5468,W,1,05,1.42,174.9,M,-34.2,M,,*52
$GPGSA,A,3,21,24,15,13,20,,,,,,,,1.71,1.42,0.96*0C
$GPRMC,143109.000,A,4048.6329,N,07418.5468,W,0.39,230.09,141219,,,A*7D
$GPVTG,230.09,T,,M,0.39,N,0.72,K,A*3A
$GPGGA,143110.000,4048.6327,N,07418.5468,W,1,05,1.42,174.8,M,-34.2,M,,*55
$GPGSA,A,3,21,24,15,13,20,,,,,,,,1.71,1.42,0.96*0C
$GPRMC,143110.000,A,4048.6327,N,07418.5468,W,0.35,215.93,141219,,,A*73
$GPVTG,215.93,T,,M,0.35,N,0.65,K,A*34
$GPGGA,143111.000,4048.6325,N,07418.5468,W,1,05,1.42,174.8,M,-34.2,M,,*56
$GPGSA,A,3,21,24,15,13,20,,,,,,,,1.71,1.42,0.96*0C
$GPGSV,2,1,07,21,67,276,20,15,65,048,42,20,47,302,32,24,39,153,18*70
$GPGSV,2,2,07,13,32,048,19,10,20,289,18,33,14,111,*44
$GPRMC,143111.000,A,4048.6325,N,07418.5468,W,0.33,198.75,141219,,,A*78
$GPVTG,198.75,T,,M,0.33,N,0.61,K,A*38
$GPGGA,143112.000,4048.6323,N,07418.5469,W,1,05,1.42,174.7,M,-34.2,M,,*5D
$GPGSA,A,3,21,24,15,13,20,,,,,,,,1.71,1.42,0.96*0C
$GPRMC,143112.000,A,4048.6323,N,07418.5469,W,0.42,204.44,141219,,,A*7E
$GPVTG,204.44,T,,M,0.42,N,0.78,K,A*32
$GPGGA,143113.000,4048.6321,N,07418.5469,W,1,05,1.42,174.6,M,-34.2,M,,*5F
$GPGSA,A,3,21,24,15,13,20,,,,,,,,1.71,1.42,0.96*0C
$GPRMC,143113.000,A,4048.6321,N,07418.5469,W,0.33,190.71,141219,,,A*73
$GPVTG,190.71,T,,M,0.33,N,0.62,K,A*37
$GPGGA,143114.000,4048.6319,N,07418.5470,W,1,05,1.42,174.5,M,-34.2,M,,*58
$GPGSA,A,3,21,24,15,13,20,,,,,,,,1.71,1.42,0.96*0C
$GPRMC,143114.000,A,4048.6319,N,07418.5470,W,0.40,206.58,141219,,,A*74
$GPVTG,206.58,T,,M,0.40,N,0.74,K,A*33
$GPGGA,143115.000,4048.6317,N,07418.5470,W,1,05,1.42,174.5,M,-34.2,M,,*57
$GPGSA,A,3,21,24,15,13,20,,,,,,,,1.71,1.42,0.96*0C
$GPRMC,143115.000,A,4048.6317,N,07418.5470,W,0.35,202.36,141219,,,A*75
$GPVTG,202.36,T,,M,0.35,N,0.64,K,A*3C
$GPGGA,143116.000,4048.6312,N,07418.5470,W,1,05,1.42,174.4,M,-34.2,M,,*50
$GPGSA,A,3,21,24,15,13,20,,,,,,,,1.71,1.42,0.96*0C
$GPGSV,2,1,07,21,67,276,20,15,65,048,42,20,47,302,32,24,39,153,18*70
$GPGSV,2,2,07,13,32,048,19,10,20,289,18,33,14,111,*44
$GPRMC,143116.000,A,4048.6312,N,07418.5470,W,0.44,194.60,141219,,,A*7A
$GPVTG,194.60,T,,M,0.44,N,0.82,K,A*3D
$GPGGA,143117.000,4048.6311,N,07418.5470,W,1,05,1.42,174.3,M,-34.2,M,,*55
$GPGSA,A,3,21,24,15,13,20,,,,,,,,1.71,1.42,0.96*0C
$GPRMC,143117.000,A,4048.6311,N,07418.5470,W,0.38,183.11,141219,,,A*73
$GPVTG,183.11,T,,M,0.38,N,0.71,K,A*3A
$GPGGA,143118.000,4048.6307,N,07418.5468,W,1,05,1.42,174.3,M,-34.2,M,,*54
$GPGSA,A,3,21,24,15,13,20,,,,,,,,1.72,1.42,0.96*0F
$GPRMC,143118.000,A,4048.6307,N,07418.5468,W,0.55,164.72,141219,,,A*75
$GPVTG,164.72,T,,M,0.55,N,1.02,K,A*38
$GPGGA,143119.000,4048.6305,N,07418.5470,W,1,05,1.42,174.2,M,-34.2,M,,*5F
$GPGSA,A,3,21,24,15,13,20,,,,,,,,1.71,1.42,0.96*0C
$GPRMC,143119.000,A,4048.6305,N,07418.5470,W,0.46,184.77,141219,,,A*76
$GPVTG,184.77,T,,M,0.46,N,0.84,K,A*3E
$GPGGA,143120.000,4048.6304,N,07418.5471,W,1,05,1.42,174.1,M,-34.2,M,,*56
$GPGSA,A,3,21,24,15,13,20,,,,,,,,1.71,1.42,0.96*0C
$GPRMC,143120.000,A,4048.6304,N,07418.5471,W,0.53,194.37,141219,,,A*7D
$GPVTG,194.37,T,,M,0.53,N,0.99,K,A*33
$GPGGA,143121.000,4048.6303,N,07418.5472,W,1,05,1.42,174.0,M,-34.2,M,,*52
$GPGSA,A,3,21,24,15,13,20,,,,,,,,1.72,1.42,0.96*0F
$GPGSV,2,1,07,21,67,276,22,15,65,048,42,20,47,302,33,24,39,153,18*73
$GPGSV,2,2,07,13,32,048,21,10,20,289,18,34,,,*7C
$GPRMC,143121.000,A,4048.6303,N,07418.5472,W,0.45,191.11,141219,,,A*7E
$GPVTG,191.11,T,,M,0.45,N,0.84,K,A*39
$GPGGA,143122.000,4048.6301,N,07418.5473,W,1,05,1.42,173.9,M,-34.2,M,,*5C
$GPGSA,A,3,21,24,15,13,20,,,,,,,,1.71,1.42,0.96*0C
$GPRMC,143122.000,A,4048.6301,N,07418.5473,W,0.48,190.56,141219,,,A*71
$GPVTG,190.56,T,,M,0.48,N,0.90,K,A*33
$GPGGA,143123.000,4048.6298,N,07418.5473,W,1,05,1.42,173.9,M,-34.2,M,,*5C
$GPGSA,A,3,21,24,15,13,20,,,,,,,,1.72,1.42,0.96*0F
$GPRMC,143123.000,A,4048.6298,N,07418.5473,W,0.49,175.67,141219,,,A*79
$GPVTG,175.67,T,,M,0.49,N,0.91,K,A*3A
$GPGGA,143124.000,4048.6296,N,07418.5474,W,1,05,1.42,173.8,M,-34.2,M,,*53
$GPGSA,A,3,21,24,15,13,20,,,,,,,,1.71,1.42,0.96*0C
$GPRMC,143124.000,A,4048.6296,N,07418.5474,W,0.51,182.87,141219,,,A*78
$GPVTG,182.87,T,,M,0.51,N,0.95,K,A*31
$GPGGA,143125.000,4048.6292,N,07418.5477,W,1,05,1.42,173.7,M,-34.2,M,,*5A
$GPGSA,A,3,21,24,15,13,20,,,,,,,,1.71,1.42,0.96*0C
$GPRMC,143125.000,A,4048.6292,N,07418.5477,W,0.49,203.62,141219,,,A*76
$GPVTG,203.62,T,,M,0.49,N,0.91,K,A*3D
$GPGGA,143126.000,4048.6287,N,07418.5478,W,1,05,1.42,173.6,M,-34.2,M,,*53
$GPGSA,A,3,21,24,15,13,20,,,,,,,,1.71,1.42,0.96*0C
$GPGSV,2,1,07,21,67,276,22,15,65,048,42,20,47,302,32,24,39,153,19*73
$GPGSV,2,2,07,13,32,048,24,10,20,289,18,35,,,*78
$GPRMC,143126.000,A,4048.6287,N,07418.5478,W,0.56,205.69,141219,,,A*7D
$GPVTG,205.69,T,,M,0.56,N,1.04,K,A*33
$GPGGA,143127.000,4048.6282,N,07418.5479,W,1,05,1.42,173.6,M,-34.2,M,,*56
$GPGSA,A,3,21,24,15,13,20,,,,,,,,1.71,1.42,0.96*0C
$GPRMC,143127.000,A,4048.6282,N,07418.5479,W,0.59,198.15,141219,,,A*7B
$GPVTG,198.15,T,,M,0.59,N,1.09,K,A*3D
$GPGGA,143128.000,4048.6281,N,07418.5483,W,1,05,1.42,173.5,M,-34.2,M,,*5C
$GPGSA,A,3,21,24,15,13,20,,,,,,,,1.71,1.42,0.96*0C
$GPRMC,143128.000,A,4048.6281,N,07418.5483,W,0.60,215.00,141219,,,A*7A
$GPVTG,215.00,T,,M,0.60,N,1.10,K,A*3D
$GPGGA,143129.000,4048.6281,N,07418.5484,W,1,05,1.42,173.4,M,-34.2,M,,*5B
$GPGSA,A,3,21,24,15,13,20,,,,,,,,1.72,1.42,0.96*0F
$GPRMC,143129.000,A,4048.6281,N,07418.5484,W,0.47,214.79,141219,,,A*76
$GPVTG,214.79,T,,M,0.47,N,0.86,K,A*39
$GPGGA,143130.000,4048.6277,N,07418.5484,W,1,05,1.42,173.4,M,-34.2,M,,*5A
$GPGSA,A,3,21,24,15,13,20,,,,,,,,1.72,1.42,0.96*0F
$GPRMC,143130.000,A,4048.6277,N,07418.5484,W,0.45,192.12,141219,,,A*75
$GPVTG,192.12,T,,M,0.45,N,0.83,K,A*3E
$GPGGA,143131.000,4048.6272,N,07418.5484,W,1,05,1.42,173.3,M,-34.2,M,,*59
$GPGSA,A,3,21,24,15,13,20,,,,,,,,1.72,1.42,0.96*0F
$GPGSV,2,1,07,21,67,276,23,15,65,048,42,20,47,302,32,24,39,153,21*79
$GPGSV,2,2,07,13,32,048,23,10,20,290,18,36,,,*74
$GPRMC,143131.000,A,4048.6272,N,07418.5484,W,0.54,189.40,141219,,,A*7C
$GPVTG,189.40,T,,M,0.54,N,1.00,K,A*39
$GPGGA,143132.000,4048.6267,N,07418.5483,W,1,05,1.42,173.2,M,-34.2,M,,*58
$GPGSA,A,3,21,24,15,13,20,,,,,,,,1.72,1.42,0.96*0F
$GPRMC,143132.000,A,4048.6267,N,07418.5483,W,0.53,177.67,141219,,,A*7F
$GPVTG,177.67,T,,M,0.53,N,0.98,K,A*3A
$GPGGA,143133.000,4048.6262,N,07418.5484,W,1,05,1.42,173.1,M,-34.2,M,,*58
$GPGSA,A,3,21,24,15,13,20,,,,,,,,1.72,1.42,0.96*0F
$GPRMC,143133.000,A,4048.6262,N,07418.5484,W,0.56,187.16,141219,,,A*70
$GPVTG,187.16,T,,M,0.56,N,1.05,K,A*33
$GPGGA,143134.000,4048.6261,N,07418.5483,W,1,05,1.42,173.0,M,-34.2,M,,*5A
$GPGSA,A,3,21,24,15,13,20,,,,,,,,1.72,1.42,0.96*0F
$GPRMC,143134.000,A,4048.6261,N,07418.5483,W,0.48,180.92,141219,,,A*77
$GPVTG,180.92,T,,M,0.48,N,0.89,K,A*32
$GPGGA,143135.000,4048.6255,N,07418.5484,W,1,05,1.42,173.0,M,-34.2,M,,*5B
$GPGSA,A,3,21,24,15,13,20,,,,,,,,1.72,1.42,0.96*0F
$GPRMC,143135.000,A,4048.6255,N,07418.5484,W,0.57,188.19,141219,,,A*73
$GPVTG,188.19,T,,M,0.57,N,1.06,K,A*31
$GPGGA,143136.000,4048.6253,N,07418.5484,W,1,05,1.42,172.8,M,-34.2,M,,*57
$GPGSA,A,3,21,24,15,13,20,,,,,,,,1.72,1.42,0.96*0F
$GPGSV,2,1,07,21,67,276,24,15,65,048,42,20,47,302,32,24,39,153,21*7E
$GPGSV,2,2,07,13,32,048,23,10,20,290,19,36,,,*75
$GPRMC,143136.000,A,4048.6253,N,07418.5484,W,0.58,188.01,141219,,,A*70
$GPVTG,188.01,T,,M,0.58,N,1.07,K,A*36
$GPGGA,143137.000,4048.6254,N,07418.5483,W,1,05,1.42,172.7,M,-34.2,M,,*59
$GPGSA,A,3,21,24,15,13,20,,,,,,,,1.72,1.42,0.96*0F
$GPRMC,143137.000,A,4048.6254,N,07418.5483,W,0.55,181.73,141219,,,A*70
$GPVTG,181.73,T,,M,0.55,N,1.02,K,A*32
$GPGGA,143138.000,4048.6257,N,07418.5483,W,1,05,1.42,172.6,M,-34.2,M,,*54
$GPGSA,A,3,21,24,15,13,20,,,,,,,,1.72,1.42,0.96*0F
$GPRMC,143138.000,A,4048.6257,N,07418.5483,W,0.37,191.83,141219,,,A*76
$GPVTG,191.83,T,,M,0.37,N,0.69,K,A*34
$GPGGA,143139.000,4048.6257,N,07418.5482,W,1,05,1.42,172.5,M,-34.2,M,,*57
$GPGSA,A,3,21,24,15,13,20,,,,,,,,1.72,1.42,0.96*0F
$GPRMC,143139.000,A,4048.6257,N,07418.5482,W,0.37,189.47,141219,,,A*77
$GPVTG,189.47,T,,M,0.37,N,0.68,K,A*34
$GPGGA,143140.000,4048.6255,N,07418.5480,W,1,05,1.42,172.4,M,-34.2,M,,*58
$GPGSA,A,3,21,24,15,13,20,,,,,,,,1.72,1.42,0.96*0F
$GPRMC,143140.000,A,4048.6255,N,07418.5480,W,0.28,160.48,141219,,,A*7F
$GPVTG,160.48,T,,M,0.28,N,0.52,K,A*3B
$GPGGA,143141.000,4048.6254,N,07418.5479,W,1,05,1.42,172.3,M,-34.2,M,,*59
$GPGSA,A,3,21,24,15,13,20,,,,,,,,1.72,1.42,0.96*0F
$GPGSV,2,1,07,21,68,275,25,15,65,048,42,20,47,302,32,24,39,153,22*70
$GPGSV,2,2,07,13,32,048,25,10,20,290,19,38,,,*7D
$GPRMC,143141.000,A,4048.6254,N,07418.5479,W,0.37,165.70,141219,,,A*79
$GPVTG,165.70,T,,M,0.37,N,0.69,K,A*33
$GPGGA,143142.000,4048.6254,N,07418.5479,W,1,05,1.42,172.2,M,-34.2,M,,*5B
$GPGSA,A,3,21,24,15,13,20,,,,,,,,1.72,1.42,0.96*0F
$GPRMC,143142.000,A,4048.6254,N,07418.5479,W,0.25,167.57,141219,,,A*7E
$GPVTG,167.57,T,,M,0.25,N,0.46,K,A*3A
$GPGGA,143143.000,4048.6254,N,07418.5478,W,1,05,1.42,172.1,M,-34.2,M,,*58
$GPGSA,A,3,21,24,15,13,20,,,,,,,,1.72,1.42,0.96*0F
$GPRMC,143143.000,A,4048.6254,N,07418.5478,W,0.22,172.50,141219,,,A*7A
$GPVTG,172.50,T,,M,0.22,N,0.40,K,A*38
$GPGGA,143144.000,4048.6255,N,07418.5477,W,1,05,1.42,172.0,M,-34.2,M,,*50
$GPGSA,A,3,21,24,15,13,20,,,,,,,,1.72,1.42,0.96*0F
$GPRMC,143144.000,A,4048.6255,N,07418.5477,W,0.12,158.11,141219,,,A*7D
$GPVTG,158.11,T,,M,0.12,N,0.22,K,A*32
$GPGGA,143145.000,4048.6254,N,07418.5475,W,1,05,1.42,171.9,M,-34.2,M,,*58
$GPGSA,A,3,21,24,15,13,20,,,,,,,,1.72,1.42,0.96*0F
$GPRMC,143145.000,A,4048.6254,N,07418.5475,W,0.16,163.74,141219,,,A*70
$GPVTG,163.74,T,,M,0.16,N,0.30,K,A*3E
$GPGGA,143146.000,4048.6252,N,07418.5475,W,1,05,1.42,171.8,M,-34.2,M,,*5C
$GPGSA,A,3,21,24,15,13,20,,,,,,,,1.72,1.42,0.96*0F
$GPGSV,2,1,07,21,68,275,26,15,65,048,42,20,47,302,33,24,39,153,23*73
$GPGSV,2,2,07,13,32,048,25,10,20,290,20,41,,,*79
$GPRMC,143146.000,A,4048.6252,N,07418.5475,W,0.14,212.89,141219,,,A*70
$GPVTG,212.89,T,,M,0.14,N,0.26,K,A*3C
$GPGGA,143147.000,4048.6250,N,07418.5474,W,1,05,1.42,171.7,M,-34.2,M,,*51
$GPGSA,A,3,21,24,15,13,20,,,,,,,,1.72,1.42,0.96*0F
$GPRMC,143147.000,A,4048.6250,N,07418.5474,W,0.26,192.66,141219,,,A*79
$GPVTG,192.66,T,,M,0.26,N,0.48,K,A*3F
$GPGGA,143148.000,4048.6248,N,07418.5472,W,1,05,1.42,171.6,M,-34.2,M,,*50
$GPGSA,A,3,21,24,15,13,20,,,,,,,,1.72,1.42,0.96*0F
$GPRMC,143148.000,A,4048.6248,N,07418.5472,W,0.16,170.03,141219,,,A*75
$GPVTG,170.03,T,,M,0.16,N,0.30,K,A*3C
$GPGGA,143149.000,4048.6243,N,07418.5471,W,1,05,1.42,171.5,M,-34.2,M,,*5A
$GPGSA,A,3,21,24,15,13,20,,,,,,,,1.72,1.42,0.96*0F
$GPRMC,143149.000,A,4048.6243,N,07418.5471,W,0.32,181.14,141219,,,A*72
$GPVTG,181.14,T,,M,0.32,N,0.60,K,A*37
$GPGGA,143150.000,4048.6239,N,07418.5470,W,1,05,1.42,171.4,M,-34.2,M,,*5F
$GPGSA,A,3,21,24,15,13,20,,,,,,,,1.72,1.42,0.96*0F
$GPRMC,143150.000,A,4048.6239,N,07418.5470,W,0.35,168.79,141219,,,A*7D
$GPVTG,168.79,T,,M,0.35,N,0.66,K,A*3A
$GPGGA,143151.000,4048.6236,N,07418.5469,W,1,05,1.42,171.3,M,-34.2,M,,*5E
$GPGSA,A,3,21,24,15,13,20,,,,,,,,1.72,1.42,0.96*0F
$GPGSV,2,1,07,21,68,275,26,15,65,048,42,20,47,302,33,24,39,153,24*74
$GPGSV,2,2,07,13,32,048,25,10,20,290,21,43,,,*7A
$GPRMC,143151.000,A,4048.6236,N,07418.5469,W,0.40,169.58,141219,,,A*7B
$GPVTG,169.58,T,,M,0.40,N,0.73,K,A*3E
$GPGGA,143152.000,4048.6233,N,07418.5471,W,1,05,1.42,171.2,M,-34.2,M,,*50
$GPGSA,A,3,21,24,15,13,20,,,,,,,,1.72,1.42,0.96*0F
$GPRMC,143152.000,A,4048.6233,N,07418.5471,W,0.40,198.57,141219,,,A*75
$GPVTG,198.57,T,,M,0.40,N,0.74,K,A*38
$GPGGA,143153.000,4048.6232,N,07418.5471,W,1,05,1.42,171.1,M,-34.2,M,,*53
$GPGSA,A,3,21,24,15,13,20,,,,,,,,1.72,1.42,0.96*0F
$GPRMC,143153.000,A,4048.6232,N,07418.5471,W,0.45,196.95,141219,,,A*70
$GPVTG,196.95,T,,M,0.45,N,0.83,K,A*35
$GPGGA,143154.000,4048.6218,N,07418.5472,W,1,05,1.42,170.8,M,-34.2,M,,*57
$GPGSA,A,3,21,24,15,13,20,,,,,,,,1.72,1.42,0.96*0F
$GPRMC,143154.000,A,4048.6218,N,07418.5472,W,0.50,197.32,141219,,,A*74
$GPVTG,197.32,T,,M,0.50,N,0.92,K,A*3D
$GPGGA,143155.000,4048.6206,N,07418.5472,W,1,05,1.42,170.5,M,-34.2,M,,*54
$GPGSA,A,3,21,24,15,13,20,,,,,,,,1.72,1.42,0.96*0F
$GPRMC,143155.000,A,4048.6206,N,07418.5472,W,0.36,197.35,141219,,,A*7D
$GPVTG,197.35,T,,M,0.36,N,0.68,K,A*3F
$GPGGA,143156.000,4048.6192,N,07418.5471,W,1,05,1.42,170.2,M,-34.2,M,,*5D
$GPGSA,A,3,21,24,15,13,20,,,,,,,,1.72,1.42,0.96*0F
$GPGSV,2,1,07,21,68,275,27,15,65,048,42,20,47,302,33,24,39,153,24*75
$GPGSV,2,2,07,13,32,048,25,10,20,290,22,43,,,*79
$GPRMC,143156.000,A,4048.6192,N,07418.5471,W,0.46,191.23,141219,,,A*75
$GPVTG,191.23,T,,M,0.46,N,0.85,K,A*3A
$GPGGA,143157.000,4048.6179,N,07418.5470,W,1,05,1.42,169.9,M,-34.2,M,,*5B
$GPGSA,A,3,21,24,15,13,20,,,,,,,,1.72,1.42,0.96*0F
$GPRMC,143157.000,A,4048.6179,N,07418.5470,W,0.51,181.43,141219,,,A*71
$GPVTG,181.43,T,,M,0.51,N,0.94,K,A*3B
$GPGGA,143158.000,4048.6166,N,07418.5470,W,1,05,1.42,169.6,M,-34.2,M,,*55
$GPGSA,A,3,21,24,15,13,20,,,,,,,,1.72,1.42,0.96*0F
$GPRMC,143158.000,A,4048.6166,N,07418.5470,W,0.62,181.86,141219,,,A*79
$GPVTG,181.86,T,,M,0.62,N,1.15,K,A*3A
$GPGGA,143159.000,4048.6156,N,07418.5468,W,1,05,1.42,169.2,M,-34.2,M,,*5A
$GPGSA,A,3,21,24,15,13,20,,,,,,,,1.72,1.42,0.96*0F
$GPRMC,143159.000,A,4048.6156,N,07418.5468,W,0.47,172.64,141219,,,A*75
$GPVTG,172.64,T,,M,0.47,N,0.86,K,A*36
$GPGGA,143200.000,4048.6147,N,07418.5467,W,1,05,1.42,168.9,M,-34.2,M,,*50
$GPGSA,A,3,21,24,15,13,20,,,,,,,,1.72,1.42,0.96*0F
$GPRMC,143200.000,A,4048.6147,N,07418.5467,W,0.46,173.15,141219,,,A*73
$GPVTG,173.15,T,,M,0.46,N,0.85,K,A*33
$GPGGA,143201.000,4048.6136,N,07418.5466,W,1,05,1.42,168.7,M,-34.2,M,,*58
$GPGSA,A,3,21,24,15,13,20,,,,,,,,1.72,1.42,0.96*0F
$GPGSV,2,1,07,21,68,275,27,15,65,048,42,20,47,302,33,24,39,153,24*75
$GPGSV,2,2,07,13,32,048,24,10,20,290,21,45,,,*7D
$GPRMC,143201.000,A,4048.6136,N,07418.5466,W,0.47,172.25,141219,,,A*76
$GPVTG,172.25,T,,M,0.47,N,0.88,K,A*3D
$GPGGA,143202.000,4048.6126,N,07418.5464,W,1,05,1.42,168.4,M,-34.2,M,,*5B
$GPGSA,A,3,21,24,15,13,20,,,,,,,,1.72,1.42,0.96*0F
$GPRMC,143202.000,A,4048.6126,N,07418.5464,W,0.58,171.08,141219,,,A*74
$GPVTG,171.08,T,,M,0.58,N,1.08,K,A*36
$GPGGA,143203.000,4048.6120,N,07418.5462,W,1,05,1.42,168.1,M,-34.2,M,,*5F
$GPGSA,A,3,21,24,15,13,20,,,,,,,,1.72,1.42,0.96*0F
$GPRMC,143203.000,A,4048.6120,N,07418.5462,W,0.48,159.55,141219,,,A*76
$GPVTG,159.55,T,,M,0.48,N,0.89,K,A*3D
$GPGGA,143204.000,4048.6111,N,07418.5462,W,1,05,1.42,167.8,M,-34.2,M,,*5C
$GPGSA,A,3,21,24,15,13,20,,,,,,,,1.72,1.42,0.96*0F
$GPRMC,143204.000,A,4048.6111,N,07418.5462,W,0.49,177.86,141219,,,A*70
$GPVTG,177.86,T,,M,0.49,N,0.91,K,A*37
$GPGGA,143205.000,4048.6104,N,07418.5460,W,1,05,1.42,167.5,M,-34.2,M,,*56
$GPGSA,A,3,21,24,15,13,20,,,,,,,,1.72,1.42,0.96*0F
$GPRMC,143205.000,A,4048.6104,N,07418.5460,W,0.44,171.87,141219,,,A*7D
$GPVTG,171.87,T,,M,0.44,N,0.81,K,A*3C
$GPGGA,143206.000,4048.6090,N,07418.5457,W,1,05,1.42,167.1,M,-34.2,M,,*59
$GPGSA,A,3,21,24,15,13,20,,,,,,,,1.72,1.42,0.96*0F
$GPGSV,2,1,07,21,68,275,28,15,65,048,42,20,47,302,33,24,39,153,24*7A
$GPGSV,2,2,07,13,32,048,24,10,20,290,21,46,,,*7E
$GPRMC,143206.000,A,4048.6090,N,07418.5457,W,0.57,159.99,141219,,,A*71
$GPVTG,159.99,T,,M,0.57,N,1.06,K,A*35
$GPGGA,143207.000,4048.6077,N,07418.5455,W,1,05,1.42,166.8,M,-34.2,M,,*5B
$GPGSA,A,3,21,24,15,13,20,,,,,,,,1.72,1.42,0.96*0F
$GPRMC,143207.000,A,4048.6077,N,07418.5455,W,0.54,160.33,141219,,,A*72
$GPVTG,160.33,T,,M,0.54,N,1.00,K,A*3A
$GPGGA,143208.000,4048.6071,N,07418.5454,W,1,05,1.42,166.5,M,-34.2,M,,*5E
$GPGSA,A,3,21,24,15,13,20,,,,,,,,1.72,1.42,0.96*0F
$GPRMC,143208.000,A,4048.6071,N,07418.5454,W,0.58,164.60,141219,,,A*74
$GPVTG,164.60,T,,M,0.58,N,1.07,K,A*33
$GPGGA,143209.000,4048.6064,N,07418.5452,W,1,05,1.42,166.2,M,-34.2,M,,*5A
$GPGSA,A,3,21,24,15,13,20,,,,,,,,1.72,1.42,0.96*0F
$GPRMC,143209.000,A,4048.6064,N,07418.5452,W,0.56,159.99,141219,,,A*71
$GPVTG,159.99,T,,M,0.56,N,1.04,K,A*36
$GPGGA,143210.000,4048.6054,N,07418.5449,W,1,05,1.42,165.9,M,-34.2,M,,*53
$GPGSA,A,3,21,24,15,13,20,,,,,,,,1.72,1.42,0.96*0F
$GPRMC,143210.000,A,4048.6054,N,07418.5449,W,0.53,159.58,141219,,,A*78
$GPVTG,159.58,T,,M,0.53,N,0.98,K,A*3A
$GPGGA,143211.000,4048.6049,N,07418.5447,W,1,05,1.42,165.6,M,-34.2,M,,*5F
$GPGSA,A,3,21,24,15,13,20,,,,,,,,1.72,1.42,0.96*0F
$GPGSV,2,1,07,21,68,275,28,15,65,048,41,20,47,302,33,24,39,153,24*79
$GPGSV,2,2,07,13,32,048,24,10,20,290,21,47,,,*7F
$GPRMC,143211.000,A,4048.6049,N,07418.5447,W,0.42,156.56,141219,,,A*7A
$GPVTG,156.56,T,,M,0.42,N,0.78,K,A*35
$GPGGA,143212.000,4048.6036,N,07418.5444,W,1,05,1.42,165.2,M,-34.2,M,,*53
$GPGSA,A,3,21,24,15,13,20,,,,,,,,1.72,1.42,0.96*0F
$GPRMC,143212.000,A,4048.6036,N,07418.5444,W,0.54,159.45,141219,,,A*78
$GPVTG,159.45,T,,M,0.54,N,1.00,K,A*31
$GPGGA,143213.000,4048.6026,N,07418.5442,W,1,05,1.42,164.8,M,-34.2,M,,*5E
$GPGSA,A,3,21,24,15,13,20,,,,,,,,1.72,1.42,0.96*0F
$GPRMC,143213.000,A,4048.6026,N,07418.5442,W,0.51,159.92,141219,,,A*71
$GPVTG,159.92,T,,M,0.51,N,0.95,K,A*33
$GPGGA,143214.000,4048.6022,N,07418.5442,W,1,05,1.42,164.5,M,-34.2,M,,*50
$GPGSA,A,3,21,24,15,13,20,,,,,,,,1.72,1.42,0.96*0F
$GPRMC,143214.000,A,4048.6022,N,07418.5442,W,0.48,167.48,141219,,,A*70
$GPVTG,167.48,T,,M,0.48,N,0.89,K,A*3C
$GPGGA,143215.000,4048.6016,N,07418.5440,W,1,05,1.42,164.2,M,-34.2,M,,*53
$GPGSA,A,3,21,24,15,13,20,,,,,,,,1.72,1.42,0.96*0F
$GPRMC,143215.000,A,4048.6016,N,07418.5440,W,0.56,156.00,141219,,,A*75
$GPVTG,156.00,T,,M,0.56,N,1.03,K,A*3E
$GPGGA,143216.000,4048.6011,N,07418.5438,W,1,05,1.42,163.9,M,-34.2,M,,*54
$GPGSA,A,3,21,24,15,13,20,,,,,,,,1.72,1.42,0.96*0F
$GPGSV,2,1,07,21,68,274,29,15,65,048,41,20,47,303,33,24,39,153,23*7F
$GPGSV,2,2,07,13,32,048,24,10,20,290,21,47,,,*7F
$GPRMC,143216.000,A,4048.6011,N,07418.5438,W,0.54,155.70,141219,,,A*78
$GPVTG,155.70,T,,M,0.54,N,1.01,K,A*3A
$GPGGA,143217.000,4048.6006,N,07418.5438,W,1,05,1.42,163.6,M,-34.2,M,,*5C
$GPGSA,A,3,21,24,15,13,20,,,,,,,,1.72,1.42,0.96*0F
$GPRMC,143217.000,A,4048.6006,N,07418.5438,W,0.52,163.36,141219,,,A*7E
$GPVTG,163.36,T,,M,0.52,N,0.97,K,A*35
$GPGGA,143218.000,4048.6003,N,07418.5438,W,1,05,1.42,163.4,M,-34.2,M,,*54
$GPGSA,A,3,21,24,15,13,20,,,,,,,,1.72,1.42,0.96*0F
$GPRMC,143218.000,A,4048.6003,N,07418.5438,W,0.53,157.41,141219,,,A*72
$GPVTG,157.41,T,,M,0.53,N,0.98,K,A*3C
$GPGGA,143219.000,4048.6001,N,07418.5437,W,1,05,1.42,163.4,M,-34.2,M,,*58
$GPGSA,A,3,21,24,15,13,20,,,,,,,,1.72,1.42,0.96*0F
$GPRMC,143219.000,A,4048.6001,N,07418.5437,W,0.55,173.20,141219,,,A*79
$GPVTG,173.20,T,,M,0.55,N,1.01,K,A*3A
$GPGGA,143220.000,4048.6000,N,07418.5437,W,1,05,1.42,163.4,M,-34.2,M,,*53
$GPGSA,A,3,21,24,15,13,20,,,,,,,,1.72,1.42,0.96*0F
$GPRMC,143220.000,A,4048.6000,N,07418.5437,W,0.54,163.19,141219,,,A*78
$GPVTG,163.19,T,,M,0.54,N,1.00,K,A*31
$GPGGA,143221.000,4048.5998,N,07418.5436,W,1,05,1.42,163.4,M,-34.2,M,,*58
$GPGSA,A,3,21,24,15,13,20,,,,,,,,1.72,1.42,0.96*0F
$GPGSV,2,1,07,21,68,274,29,15,65,048,41,20,47,303,32,24,39,153,24*79
$GPGSV,2,2,07,13,32,048,24,10,20,290,21,49,,,*71
$GPRMC,143221.000,A,4048.5998,N,07418.5436,W,0.50,167.74,141219,,,A*78
$GPVTG,167.74,T,,M,0.50,N,0.93,K,A*31
$GPGGA,143222.000,4048.5997,N,07418.5436,W,1,05,1.42,163.4,M,-34.2,M,,*54
$GPGSA,A,3,21,24,15,13,20,,,,,,,,1.72,1.42,0.96*0F
$GPRMC,143222.000,A,4048.5997,N,07418.5436,W,0.40,161.93,141219,,,A*7A
$GPVTG,161.93,T,,M,0.40,N,0.74,K,A*36
$GPGGA,143223.000,4048.5996,N,07418.5435,W,1,05,1.42,163.4,M,-34.2,M,,*57
$GPGSA,A,3,21,24,15,13,20,,,,,,,,1.72,1.42,0.96*0F
$GPRMC,143223.000,A,4048.5996,N,07418.5435,W,0.57,182.77,141219,,,A*78
$GPVTG,182.77,T,,M,0.57,N,1.06,K,A*33
$GPGGA,143224.000,4048.5994,N,07418.5435,W,1,05,1.42,163.4,M,-34.2,M,,*52
$GPGSA,A,3,21,24,15,13,20,,,,,,,,1.72,1.42,0.96*0F
$GPRMC,143224.000,A,4048.5994,N,07418.5435,W,0.46,171.49,141219,,,A*7C
$GPVTG,171.49,T,,M,0.46,N,0.85,K,A*38
$GPGGA,143225.000,4048.5993,N,07418.5435,W,1,05,1.42,163.4,M,-34.2,M,,*54
$GPGSA,A,3,21,24,15,13,20,,,,,,,,1.72,1.42,0.96*0F
$GPRMC,143225.000,A,4048.5993,N,07418.5435,W,0.49,170.54,141219,,,A*78
$GPVTG,170.54,T,,M,0.49,N,0.91,K,A*3F
$GPGGA,143226.000,4048.5992,N,07418.5435,W,1,05,1.42,163.4,M,-34.2,M,,*56
$GPGSA,A,3,21,24,15,13,20,,,,,,,,1.72,1.42,0.96*0F
$GPGSV,2,1,07,21,68,274,29,15,65,048,41,20,47,303,32,24,39,153,24*79
$GPGSV,2,2,07,13,32,048,23,51,32,224,,10,20,290,21*4A
$GPRMC,143226.000,A,4048.5992,N,07418.5435,W,0.34,181.67,141219,,,A*7E
$GPVTG,181.67,T,,M,0.34,N,0.63,K,A*36
$GPGGA,143227.000,4048.5991,N,07418.5435,W,1,05,1.42,163.4,M,-34.2,M,,*54
$GPGSA,A,3,21,24,15,13,20,,,,,,,,1.72,1.42,0.96*0F
$GPRMC,143227.000,A,4048.5991,N,07418.5435,W,0.50,192.65,141219,,,A*7E
$GPVTG,192.65,T,,M,0.50,N,0.92,K,A*3A
$GPGGA,143228.000,4048.5989,N,07418.5435,W,1,05,1.42,163.3,M,-34.2,M,,*55
$GPGSA,A,3,21,24,15,13,20,,,,,,,,1.72,1.42,0.96*0F
$GPRMC,143228.000,A,4048.5989,N,07418.5435,W,0.51,184.02,141219,,,A*7F
$GPVTG,184.02,T,,M,0.51,N,0.95,K,A*3A
$GPGGA,143229.000,4048.5988,N,07418.5435,W,1,05,1.42,163.3,M,-34.2,M,,*55
$GPGSA,A,3,21,24,15,13,20,,,,,,,,1.72,1.42,0.96*0F
$GPRMC,143229.000,A,4048.5988,N,07418.5435,W,0.47,179.00,141219,,,A*78
$GPVTG,179.00,T,,M,0.47,N,0.86,K,A*3F
$GPGGA,143230.000,4048.5986,N,07418.5435,W,1,05,1.42,163.3,M,-34.2,M,,*53
$GPGSA,A,3,21,24,15,13,20,,,,,,,,1.72,1.42,0.96*0F
$GPRMC,143230.000,A,4048.5986,N,07418.5435,W,0.32,178.11,141219,,,A*7D
$GPVTG,178.11,T,,M,0.32,N,0.60,K,A*34
$GPGGA,143231.000,4048.5986,N,07418.5435,W,1,05,1.42,163.3,M,-34.2,M,,*52
$GPGSA,A,3,21,24,15,13,20,,,,,,,,1.72,1.42,0.96*0F
$GPGSV,2,1,07,21,68,274,29,15,65,048,41,20,47,303,32,24,39,153,24*79
$GPGSV,2,2,07,13,32,048,23,51,32,224,,10,20,290,21*4A
$GPRMC,143231.000,A,4048.5986,N,07418.5435,W,0.35,172.36,141219,,,A*74
$GPVTG,172.36,T,,M,0.35,N,0.65,K,A*39
$GPGGA,143232.000,4048.5985,N,07418.5435,W,1,05,1.42,163.3,M,-34.2,M,,*52
$GPGSA,A,3,21,24,15,13,20,,,,,,,,1.72,1.42,0.96*0F
$GPRMC,143232.000,A,4048.5985,N,07418.5435,W,0.26,163.40,141219,,,A*77
$GPVTG,163.40,T,,M,0.26,N,0.47,K,A*3A
$GPGGA,143233.000,4048.5984,N,07418.5435,W,1,05,1.42,163.3,M,-34.2,M,,*52
$GPGSA,A,3,21,24,15,13,20,,,,,,,,1.72,1.42,0.96*0F
$GPRMC,143233.000,A,4048.5984,N,07418.5435,W,0.24,183.97,141219,,,A*71
$GPVTG,183.97,T,,M,0.24,N,0.45,K,A*3E
$GPGGA,143234.000,4048.5983,N,07418.5435,W,1,05,1.42,163.3,M,-34.2,M,,*52
$GPGSA,A,3,21,24,15,13,20,,,,,,,,1.72,1.42,0.96*0F
$GPRMC,143234.000,A,4048.5983,N,07418.5435,W,0.30,193.73,141219,,,A*7F
$GPVTG,193.73,T,,M,0.30,N,0.55,K,A*31
$GPGGA,143235.000,4048.5982,N,07418.5435,W,1,05,1.42,163.3,M,-34.2,M,,*52
$GPGSA,A,3,21,24,15,13,20,,,,,,,,1.72,1.42,0.96*0F
$GPRMC,143235.000,A,4048.5982,N,07418.5435,W,0.36,200.82,141219,,,A*7E
$GPVTG,200.82,T,,M,0.36,N,0.66,K,A*30
$GPGGA,143236.000,4048.5982,N,07418.5436,W,1,05,1.42,163.3,M,-34.2,M,,*52
$GPGSA,A,3,21,24,15,13,20,,,,,,,,1.72,1.42,0.96*0F
$GPGSV,2,1,07,21,68,274,30,15,65,048,41,20,47,303,31,24,39,153,22*74
$GPGSV,2,2,07,13,32,048,24,10,20,290,22,48,14,248,*48
$GPRMC,143236.000,A,4048.5982,N,07418.5436,W,0.39,211.81,141219,,,A*72
$GPVTG,211.81,T,,M,0.39,N,0.71,K,A*3A
$GPGGA,143237.000,4048.5981,N,07418.5436,W,1,05,1.42,163.3,M,-34.2,M,,*50
$GPGSA,A,3,21,24,15,13,20,,,,,,,,1.72,1.42,0.96*0F
$GPRMC,143237.000,A,4048.5981,N,07418.5436,W,0.32,229.29,141219,,,A*72
$GPVTG,229.29,T,,M,0.32,N,0.60,K,A*38
$GPGGA,143238.000,4048.5980,N,07418.5437,W,1,05,1.42,163.2,M,-34.2,M,,*5E
$GPGSA,A,3,21,24,15,13,20,,,,,,,,1.72,1.42,0.96*0F
$GPRMC,143238.000,A,4048.5980,N,07418.5437,W,0.30,223.17,141219,,,A*78
$GPVTG,223.17,T,,M,0.30,N,0.56,K,A*38
$GPGGA,143239.000,4048.5979,N,07418.5438,W,1,05,1.42,163.2,M,-34.2,M,,*56
$GPGSA,A,3,21,24,15,13,20,,,,,,,,1.72,1.42,0.96*0F
$GPRMC,143239.000,A,4048.5979,N,07418.5438,W,0.26,220.74,141219,,,A*71
$GPVTG,220.74,T,,M,0.26,N,0.48,K,A*36
$GPGGA,143240.000,4048.5979,N,07418.5439,W,1,05,1.43,163.2,M,-34.2,M,,*58
$GPGSA,A,3,21,24,15,13,20,,,,,,,,1.72,1.43,0.96*0E
$GPRMC,143240.000,A,4048.5979,N,07418.5439,W,0.23,208.85,141219,,,A*7F
$GPVTG,208.85,T,,M,0.23,N,0.43,K,A*3C
$GPGGA,143241.000,4048.5978,N,07418.5439,W,1,05,1.42,163.2,M,-34.2,M,,*59
$GPGSA,A,3,21,24,15,13,20,,,,,,,,1.72,1.42,0.96*0F
$GPGSV,2,1,07,21,68,274,30,15,65,048,41,20,47,303,31,24,39,153,21*77
$GPGSV,2,2,07,13,32,048,24,10,20,290,21,48,14,248,*4B
$GPRMC,143241.000,A,4048.5978,N,07418.5439,W,0.18,226.85,141219,,,A*7B
$GPVTG,226.85,T,,M,0.18,N,0.34,K,A*38
$GPGGA,143242.000,4048.5978,N,07418.5439,W,1,05,1.42,163.2,M,-34.2,M,,*5A
$GPGSA,A,3,21,24,15,13,20,,,,,,,,1.72,1.42,0.96*0F
$GPRMC,143242.000,A,4048.5978,N,07418.5439,W,0.17,234.54,141219,,,A*78
$GPVTG,234.54,T,,M,0.17,N,0.31,K,A*3D
$GPGGA,143243.000,4048.5978,N,07418.5440,W,1,05,1.42,163.2,M,-34.2,M,,*55
$GPGSA,A,3,21,24,15,13,20,,,,,,,,1.72,1.42,0.96*0F
$GPRMC,143243.000,A,4048.5978,N,07418.5440,W,0.25,222.90,141219,,,A*79
$GPVTG,222.90,T,,M,0.25,N,0.45,K,A*30
$GPGGA,143244.000,4048.5977,N,07418.5440,W,1,05,1.42,163.2,M,-34.2,M,,*5D
$GPGSA,A,3,21,24,15,13,20,,,,,,,,1.72,1.42,0.96*0F
$GPRMC,143244.000,A,4048.5977,N,07418.5440,W,0.22,181.18,141219,,,A*7C
$GPVTG,181.18,T,,M,0.22,N,0.41,K,A*39
$GPGGA,143245.000,4048.5977,N,07418.5440,W,1,05,1.42,163.2,M,-34.2,M,,*5C
$GPGSA,A,3,21,24,15,13,20,,,,,,,,1.72,1.42,0.96*0F
$GPRMC,143245.000,A,4048.5977,N,07418.5440,W,0.27,193.33,141219,,,A*72
$GPVTG,193.33,T,,M,0.27,N,0.50,K,A*36
$GPGGA,143246.000,4048.5976,N,07418.5441,W,1,05,1.42,163.2,M,-34.2,M,,*5F
$GPGSA,A,3,21,24,15,13,20,,,,,,,,1.72,1.42,0.96*0F
$GPGSV,2,1,07,21,68,274,31,15,64,048,41,20,47,303,31,24,39,153,21*77
$GPGSV,2,2,07,13,32,048,23,10,20,290,22,33,14,111,*4C
$GPRMC,143246.000,A,4048.5976,N,07418.5441,W,0.35,188.23,141219,,,A*79
$GPVTG,188.23,T,,M,0.35,N,0.64,K,A*39
$GPGGA,143247.000,4048.5975,N,07418.5441,W,1,05,1.43,163.2,M,-34.2,M,,*5C
$GPGSA,A,3,21,24,15,13,20,,,,,,,,1.72,1.43,0.96*0E
$GPRMC,143247.000,A,4048.5975,N,07418.5441,W,0.29,159.69,141219,,,A*74
$GPVTG,159.69,T,,M,0.29,N,0.53,K,A*32
$GPGGA,143248.000,4048.5974,N,07418.5440,W,1,05,1.42,163.2,M,-34.2,M,,*52
$GPGSA,A,3,21,24,15,13,20,,,,,,,,1.72,1.42,0.96*0F
$GPRMC,143248.000,A,4048.5974,N,07418.5440,W,0.41,144.67,141219,,,A*77
$GPVTG,144.67,T,,M,0.41,N,0.75,K,A*3A
$GPGGA,143249.000,4048.5973,N,07418.5440,W,1,05,1.42,163.1,M,-34.2,M,,*57
$GPGSA,A,3,21,24,15,13,20,,,,,,,,1.72,1.42,0.96*0F
